Наименование,Описание,Рубрики,Адрес,Комментарий к адресу,Почтовый индекс,Микрорайон,Район,Город,Округ,Регион,Страна,Часы работы,Часовой пояс,Рейтинг,Количество отзывов,Телефон 1,Телефон 2,Телефон 3,E-mail,Веб-сайт 1,Веб-сайт 2,Веб-сайт 3,Instagram,Facebook,ВКонтакте,WhatsApp 1,WhatsApp 2,WhatsApp 3,Viber,Telegram 1,Telegram 2,YouTube,Skype,Широта,Долгота,2GIS URL,Тип
31-А,продуктовый магазин,Продуктовые магазины,"микрорайон Орбита-3, 31а",,050043,Орбита-3 м-н,Бостандыкский район,Алматы,,Алматы,Казахстан,Пн: 09:00-23:30; Вт: 09:00-23:30; Ср: 09:00-23:30; Чт: 09:00-23:30; Пт: 09:00-23:30; Сб: 09:00-23:30; Вс: 09:00-23:30,+05:00,2.0,28,,,,,,,,,,,,,,,,,,,43.201085,76.872281,https://2gis.com/firm/9429940000924977,branch
4U,продуктовый магазин,Продуктовые магазины,"улица Жарокова, 193",1 этаж,050057,,Бостандыкский район,Алматы,,Алматы,Казахстан,Пн: 10:00-02:00; Вт: 10:00-02:00; Ср: 10:00-02:00; Чт: 10:00-02:00; Пт: 10:00-03:00; Сб: 10:00-03:00; Вс: 10:00-01:00,+05:00,1.7,33,,,,,,,,,,,,,,,,,,,43.229872,76.900421,https://2gis.com/firm/9429940000963234,branch
4You market,продуктовый магазин,Продуктовые магазины; Бытовая химия,"улица Розыбакиева, 310а",,050060,,Бостандыкский район,Алматы,,Алматы,Казахстан,Пн: 08:30-24:00; Вт: 08:30-24:00; Ср: 08:30-24:00; Чт: 08:30-24:00; Пт: 08:30-24:00; Сб: 09:00-24:00; Вс: 09:00-24:00,+05:00,3.3,38,87710950101,,,,,,,,,,,,,,,,,,43.20877,76.894721,https://2gis.com/firm/70000001055564022,branch
7 арал,магазин,Продуктовые магазины,"улица Ислама Каримова, 198а",1 этаж,050046,,Алмалинский район,Алматы,,Алматы,Казахстан,Пн: 09:00-01:00; Вт: 09:00-01:00; Ср: 09:00-01:00; Чт: 09:00-01:00; Пт: 09:00-01:00; Сб: 09:00-01:00; Вс: 09:00-01:00,+05:00,1.1,1,,,,,,,,,,,,,,,,,,,43.23988,76.884984,https://2gis.com/firm/70000001054791328,branch
7000 мелочей,магазин,Бытовая химия; Посуда; Игрушки; Нижнее бельё,"улица Курмангазы, 144",1 этаж,050008,,Алмалинский район,Алматы,,Алматы,Казахстан,Пн: 10:00-19:00; Вт: 10:00-19:00; Ср: 10:00-19:00; Чт: 10:00-19:00; Пт: 10:00-19:00; Сб: 10:00-19:00; Вс: 10:00-19:00,+05:00,4.4,21,87001006939,,,,,,,,,,https://wa.me/77001006939,,,,,,,,43.241387,76.902515,https://2gis.com/firm/70000001043835249,branch
7daysockskz ,магазин,Носки / Колготки; Календари / Открытки,"улица Розыбакиева, 247а",,050060,,Бостандыкский район,Алматы,,Алматы,Казахстан,Пн: 10:00-22:00; Вт: 10:00-22:00; Ср: 10:00-22:00; Чт: 10:00-22:00; Пт: 10:00-22:00; Сб: 10:00-22:00; Вс: 10:00-22:00,+05:00,5.0,1,,,,,,,,https://instagram.com/7daysockskz,,,https://wa.me/77760048371,,,,,,,,43.203253,76.89209,https://2gis.com/firm/70000001083684673,branch
888,продовольственный магазин,Продуктовые магазины,"улица Радостовца, 271",1 этаж,050060,,Бостандыкский район,Алматы,,Алматы,Казахстан,Пн: 08:00-24:00; Вт: 08:00-24:00; Ср: 08:00-24:00; Чт: 08:00-24:00; Пт: 08:00-24:00; Сб: 08:00-24:00; Вс: 08:00-24:00,+05:00,3.4,9,,,,,,,,,,,,,,,,,,,43.21496,76.894019,https://2gis.com/firm/9429940001173820,branch
A-Store,супермаркет,Супермаркеты; Разливное пиво,"улица Кенесары хана, 141",1 этаж,050070,Каргалы м-н,Бостандыкский район,Алматы,,Алматы,Казахстан,Пн: 08:00-22:00; Вт: 08:00-22:00; Ср: 08:00-22:00; Чт: 08:00-22:00; Пт: 08:00-22:00; Сб: 08:00-22:00; Вс: 08:00-22:00,+05:00,2.9,53,87273309777 (доп.100),87273308743 (доп.142),,,http://a-store.kz,,,https://instagram.com/a_store.kz,https://facebook.com/astore.kz,,https://wa.me/77017694426,,,,,,,,43.17628,76.866402,https://2gis.com/firm/70000001063623243,branch
A-Store,супермаркет,Супермаркеты; Разливное пиво,"проспект Назарбаева, 223",1 этаж,050059,,Бостандыкский район,Алматы,,Алматы,Казахстан,Пн: 09:00-22:00; Вт: 09:00-22:00; Ср: 09:00-22:00; Чт: 09:00-22:00; Пт: 09:00-22:00; Сб: 09:00-22:00; Вс: 09:00-22:00,+05:00,2.0,121,87273308741 (доп.1200),,,,http://a-store.kz,,,https://instagram.com/a_store.kz,https://facebook.com/astore.kz,,https://wa.me/77017694426,,,,,,,,43.232783,76.948348,https://2gis.com/firm/70000001032138656,branch
A-Store,супермаркет,Гипермаркеты; Разливное пиво,"улица Каныша Сатпаева, 90",1 этаж,050046,,Бостандыкский район,Алматы,,Алматы,Казахстан,Пн: 08:00-23:00; Вт: 08:00-23:00; Ср: 08:00-23:00; Чт: 08:00-23:00; Пт: 08:00-23:00; Сб: 08:00-23:00; Вс: 08:00-23:00,+05:00,2.1,590,87273308741 (доп.1200),,,,http://a-store.kz,,,https://instagram.com/a_store.kz,https://facebook.com/astore.kz,,https://wa.me/77017694426,,,,,,,,43.232863,76.879509,https://2gis.com/firm/9429940001078395,branch
A`sel,продуктовый магазин,Продуктовые магазины,"микрорайон Казахфильм, 3",1 этаж,050023,Казахфильм м-н,Бостандыкский район,Алматы,,Алматы,Казахстан,Пн: 05:00-03:00; Вт: 05:00-03:00; Ср: 05:00-03:00; Чт: 05:00-03:00; Пт: 05:00-03:00; Сб: 05:00-03:00; Вс: 05:00-03:00,+05:00,2.0,33,87272992811,,,,,,,,,,,,,,,,,,43.190607,76.901966,https://2gis.com/firm/9429940000876436,branch
Absolut Pelle,магазин,Женская одежда; Меха / Кожа; Верхняя одежда,"проспект Абая, 89",цокольный этаж,050022,,Алмалинский район,Алматы,,Алматы,Казахстан,Пн: 10:00-20:00; Вт: 10:00-20:00; Ср: 10:00-20:00; Чт: 10:00-20:00; Пт: 10:00-20:00; Сб: 10:00-20:00; Вс: 10:00-20:00,+05:00,,,87028713030,,,,,,,https://instagram.com/absolut_pelle,,,https://wa.me/77028713030,,,,,,,,43.2412,76.924537,https://2gis.com/firm/9429940000785026,branch
Action_cam_almaty,магазин,Аудиотехника / Видеотехника; Часы / Аксессуары,"улица Егизбаева, 54Б",14 офис; 1 этаж,050046,,Бостандыкский район,Алматы,,Алматы,Казахстан,Пн: 12:10-19:00; Вт: 12:10-19:00; Ср: 12:10-19:00; Чт: 12:10-19:00; Пт: 12:10-19:00; Сб: 13:10-18:00; Вс: 13:30-18:00 (по предварительному звонку),+05:00,5.0,67,87774886663,,,,http://actioncam.kz,,,https://instagram.com/action_cam_almaty,,,https://wa.me/77774886663,,,,https://t.me/+77774886663,,,,43.230149,76.887401,https://2gis.com/firm/70000001042070390,branch
Adelina,магазин,Ювелирные изделия,"проспект Сейфуллина, 617",2 этаж,050013,,Бостандыкский район,Алматы,,Алматы,Казахстан,Пн: 10:00-22:00; Вт: 10:00-22:00; Ср: 10:00-22:00; Чт: 10:00-22:00; Пт: 10:00-22:00; Сб: 10:00-22:00; Вс: 10:00-22:00,+05:00,1.0,1,87781113384,,,,,,,https://instagram.com/adelina.forum.kz,,,https://wa.me/77781113384,,,,,,,,43.234646,76.935844,https://2gis.com/firm/70000001082834117,branch
Ademi soul,магазин,Товары для праздников; Бижутерия; Национальные товары; Украшения для пирсинга; Ювелирные изделия,"улица Ауэзова, 99",,050008,,Алмалинский район,Алматы,,Алматы,Казахстан,Пн: 10:00-20:00; Вт: 10:00-20:00; Ср: 10:00-20:00; Чт: 10:00-20:00; Пт: 10:00-20:00; Сб: 10:00-20:00,+05:00,4.1,6,87023322220,,,,,,,https://instagram.com/ademi_soul,,,https://wa.me/77023322220,,,,,,,,43.241443,76.903283,https://2gis.com/firm/70000001066897595,branch
Adiler,продуктовый магазин,Продуктовые магазины; Разливное пиво,"улица Си Синхая, 16",1 этаж,050060,,Бостандыкский район,Алматы,,Алматы,Казахстан,Пн: 08:00-24:00; Вт: 08:00-24:00; Ср: 08:00-24:00; Чт: 08:00-24:00; Пт: 08:00-24:00; Сб: 08:00-24:00; Вс: 08:00-24:00,+05:00,2.5,19,,,,,,,,,,,,,,,,,,,43.215269,76.901141,https://2gis.com/firm/9429940001174468,branch
Adili,магазин,Сумки / Кожгалантерея; Головные / шейные уборы; Сувениры; Национальные товары; Женская одежда,"проспект Сейфуллина, 617",2 этаж,050013,,Бостандыкский район,Алматы,,Алматы,Казахстан,Пн: 10:00-22:00; Вт: 10:00-22:00; Ср: 10:00-22:00; Чт: 10:00-22:00; Пт: 10:00-22:00; Сб: 10:00-22:00; Вс: 10:00-22:00,+05:00,4.0,24,87755707587,87788007880,,,http://www.shopadili.com,,,https://instagram.com/adili.kz,,,https://wa.me/77788007880,,,,,,,,43.234183,76.936088,https://2gis.com/firm/70000001066248783,branch
Adili,магазин,Домашний текстиль; Женская одежда,"улица Розыбакиева, 247а",1 этаж,050060,,Бостандыкский район,Алматы,,Алматы,Казахстан,Пн: 10:00-22:00; Вт: 10:00-22:00; Ср: 10:00-22:00; Чт: 10:00-22:00; Пт: 10:00-22:00; Сб: 10:00-22:00; Вс: 10:00-22:00,+05:00,3.5,20,87089719778 (единый номер: пн-пт),87788007880,,,http://www.shopadili.com,,,https://instagram.com/adili.kz,,,https://wa.me/77089719778,,,,,,,,43.202982,76.892445,https://2gis.com/firm/70000001038072228,branch
Aesthetic_jwl,магазин,Бижутерия; Ювелирные изделия,"улица Жолдасбекова, 9а",1 этаж,050051,Самал-1 м-н,Медеуский район,Алматы,,Алматы,Казахстан,Пн: 10:00-20:00; Вт: 10:00-20:00; Ср: 10:00-20:00; Чт: 10:00-20:00; Пт: 10:00-20:00; Сб: 10:00-20:00; Вс: 10:00-20:00,+05:00,,,87019484090,,,,,,,https://instagram.com/aesthetic_jwl_,,,https://wa.me/77019484090,,,,,,,,43.234604,76.955702,https://2gis.com/firm/70000001063285765,branch
Ai-Sultan,продуктовый магазин,Продуктовые магазины,"улица Абиша Кекилбайулы, 129",,050060,,Бостандыкский район,Алматы,,Алматы,Казахстан,Пн: 08:00-22:00; Вт: 08:00-22:00; Ср: 08:00-22:00; Чт: 08:00-22:00; Пт: 08:00-22:00; Сб: 08:00-22:00; Вс: 08:00-22:00,+05:00,5.0,4,87079478928,,,,,,,,,,https://wa.me/77079478928,,,,,,,,43.210072,76.887571,https://2gis.com/firm/70000001094419737,branch
Aibota,мини-маркет,Продуктовые магазины; Хозтовары,"улица Сулейменова, 26а",,050042,Таугуль-1 м-н,Ауэзовский район,Алматы,,Алматы,Казахстан,Пн: 00:00-24:00; Вт: 00:00-24:00; Ср: 00:00-24:00; Чт: 00:00-24:00; Пт: 00:00-24:00; Сб: 00:00-24:00; Вс: 00:00-24:00,+05:00,4.7,13,87074153211,,,,,,,,,,https://wa.me/77074153211,,,,,,,,43.210866,76.878347,https://2gis.com/firm/70000001070103474,branch
AidiHome,магазин,Женская одежда; Игрушки; Домашний текстиль; Детская одежда; Носки / Колготки,"Е. Брусиловского улица, 167 блок 2",25 офис; цокольный этаж,050005,,Алмалинский район,Алматы,,Алматы,Казахстан,Пн: 10:00-20:00; Вт: 10:00-20:00; Ср: 10:00-20:00; Чт: 10:00-20:00; Пт: 10:00-20:00; Сб: 10:00-20:00,+05:00,,,87013126936,,,,,,,https://instagram.com/aidihome,,,https://wa.me/77013126936,,,,,,,,43.240901,76.877652,https://2gis.com/firm/70000001093577248,branch
Aikon,магазин,Запчасти к телефонам; Ремонт телефонов; Аксессуары к телефонам,"улица Тимирязева, 42 к3",28 бутик; 1 этаж,050057,,Бостандыкский район,Алматы,,Алматы,Казахстан,Пн: 10:00-21:00; Вт: 10:00-21:00; Ср: 10:00-21:00; Чт: 10:00-21:00; Пт: 10:00-21:00; Сб: 10:00-21:00; Вс: 10:00-21:00,+05:00,,,87012585823,87757022267,,,,,,https://instagram.com/aikon_kaz,,,https://wa.me/77012585823,https://wa.me/77757022267,,,,,,,43.224818,76.908148,https://2gis.com/firm/70000001054093324,branch
Airba Fresh Market,супермаркет,Супермаркеты; Доставка продуктов,"улица Тимирязева, 42 пав9а",,050057,,Бостандыкский район,Алматы,,Алматы,Казахстан,Пн: 09:00-21:00; Вт: 09:00-21:00; Ср: 09:00-21:00; Чт: 09:00-21:00; Пт: 09:00-21:00; Сб: 09:00-21:00; Вс: 09:00-21:00,+05:00,3.6,374,87772484848,,,marketing@airbafresh.kz,http://www.airbafresh.kz,,,https://instagram.com/airbafresh,https://facebook.com/airbafresh,,https://wa.me/77772484848,,,,https://t.me/airbafresh,,https://youtube.com/@Airba_Fresh,,43.221455,76.904581,https://2gis.com/firm/70000001060606663,branch
AirDrop Trade,магазин,Мобильные телефоны; Аудиотехника / Видеотехника; Бытовая техника,"улица Курмангазы, 97",1 этаж,050022,,Алмалинский район,Алматы,,Алматы,Казахстан,Пн: 10:00-21:00; Вт: 10:00-21:00; Ср: 10:00-21:00; Чт: 10:00-21:00; Пт: 10:00-21:00; Сб: 10:00-21:00; Вс: 10:00-21:00,+05:00,4.5,7,87088620906,,,,,,,https://instagram.com/airdrop_trade,,,https://wa.me/77088620906,,,,,,,,43.244099,76.931407,https://2gis.com/firm/70000001087818475,branch
Aisara,мини-маркет,Супермаркеты,"улица Декарта, 34",,050043,,Бостандыкский район,Алматы,,Алматы,Казахстан,Пн: 08:30-24:00; Вт: 08:30-24:00; Ср: 08:30-24:00; Чт: 08:30-24:00; Пт: 08:30-24:00; Сб: 08:30-24:00; Вс: 08:30-24:00,+05:00,4.2,17,87756287770,,,,,,,,,,https://wa.me/77756287770,,,,,,,,43.203693,76.878885,https://2gis.com/firm/70000001041045897,branch
Aizhan key,магазин,Косметика / Парфюмерия,"улица Ауэзова, 82",611 офис; 6 этаж,050008,,Бостандыкский район,Алматы,,Алматы,Казахстан,Пн: 09:00-19:00; Вт: 09:00-19:00; Ср: 09:00-19:00; Чт: 09:00-19:00; Пт: 09:00-19:00; Сб: 10:00-19:00; Вс: 10:00-19:00,+05:00,4.5,8,87775185534,,,,,,,https://instagram.com/aizhan_key_shop,,,https://wa.me/77775185534,,,,,,,,43.238525,76.904546,https://2gis.com/firm/70000001032963714,branch
Aladdin,продуктовый магазин,Продуктовые магазины,"улица Егизбаева, 7/10",1 этаж,050046,,Бостандыкский район,Алматы,,Алматы,Казахстан,Пн: 08:00-01:00; Вт: 08:00-01:00; Ср: 08:00-01:00; Чт: 08:00-01:00; Пт: 08:00-01:00; Сб: 08:00-01:00; Вс: 08:00-01:00,+05:00,4.0,13,87056113339,,,,,,,,,,https://wa.me/77056113339,,,,,,,,43.230793,76.885813,https://2gis.com/firm/70000001052616713,branch
Alan Market,мини-маркет,Супермаркеты; Разливное пиво,"улица Жарокова, 137/1 блок Г1",,050057,,Бостандыкский район,Алматы,,Алматы,Казахстан,Пн: 09:00-01:00; Вт: 09:00-01:00; Ср: 09:00-01:00; Чт: 09:00-01:00; Пт: 09:00-01:00; Сб: 09:00-01:00; Вс: 09:00-01:00,+05:00,4.1,7,87477093641,87272486311,,,,,,,,,https://wa.me/77477093641,,,,,,,,43.235778,76.898993,https://2gis.com/firm/70000001088053180,branch
Alcomarket ProПиво,магазин,Разливное пиво; Алкогольные напитки; Снеки; Безалкогольные напитки; Табачные изделия / Товары для курения,"улица Аскарова, 3а",1 этаж,,Рахат (Наурызбайский район) м-н,Наурызбайский район,Алматы,,Алматы,Казахстан,Пн: 11:00-01:00; Вт: 11:00-01:00; Ср: 11:00-01:00; Чт: 11:00-01:00; Пт: 11:00-01:00; Сб: 11:00-01:00; Вс: 11:00-01:00,+05:00,4.8,24,87762792792,,,,,,,,,,https://wa.me/77762792792,,,,,,,,43.195342,76.863882,https://2gis.com/firm/70000001061369423,branch
Alcomarket.kz,магазин №17,Безалкогольные напитки; Алкогольные напитки,"улица Розыбакиева, 275а",цокольный этаж,050060,,Бостандыкский район,Алматы,,Алматы,Казахстан,Пн: 10:00-21:00; Вт: 10:00-21:00; Ср: 10:00-21:00; Чт: 10:00-21:00; Пт: 10:00-21:00; Сб: 10:00-21:00; Вс: 10:00-21:00,+05:00,3.2,16,87273022472,,,,,,,https://instagram.com/alcomarket.kz,,,,,,,,,,,43.198501,76.893993,https://2gis.com/firm/70000001025115988,branch
Ali-Sa,продуктовый магазин,Продуктовые магазины,"микрорайон Казахфильм, 35",1 этаж,050023,Казахфильм м-н,Бостандыкский район,Алматы,,Алматы,Казахстан,Пн: 08:00-23:00; Вт: 08:00-23:00; Ср: 08:00-23:00; Чт: 08:00-23:00; Пт: 08:00-23:00; Сб: 08:00-23:00; Вс: 08:00-23:00,+05:00,2.0,16,87479016760,,,,,,,,,,https://wa.me/77479016760,,,,,,,,43.199886,76.907635,https://2gis.com/firm/9429940001208218,branch
Allforu ,магазин,Профессиональная косметика,"улица Жандосова, 24",10 офис; 2 этаж,050057,,Бостандыкский район,Алматы,,Алматы,Казахстан,Пн: 09:00-16:00; Вт: 09:00-16:00; Ср: 09:00-16:00; Чт: 09:00-16:00; Пт: 09:00-16:00 (по предварительному звонку: сб),+05:00,,,87718560612,87025305541,,,http://allforu.kz,,,,,,https://wa.me/77718560612,https://wa.me/77025305541,,,,,,,43.23434,76.906737,https://2gis.com/firm/70000001089910618,branch
Allphone.kz,магазин,Мобильные телефоны,"улица Тимирязева, 42 к3",1 этаж; островок №156,050057,,Бостандыкский район,Алматы,,Алматы,Казахстан,Пн: 10:00-21:00; Вт: 10:00-21:00; Ср: 10:00-21:00; Чт: 10:00-21:00; Пт: 10:00-21:00; Сб: 10:00-21:00; Вс: 10:00-21:00,+05:00,,,87071466634,,,,,,,https://instagram.com/allphone.kz,,,https://wa.me/77071466634,,,,,,,,43.224887,76.908648,https://2gis.com/firm/70000001046381488,branch
Állure jewelry,магазин,Ювелирные изделия,"улица Желтоксан, 160",1 этаж,050000,,Алмалинский район,Алматы,,Алматы,Казахстан,Пн: 11:00-20:00; Вт: 11:00-20:00; Ср: 11:00-20:00; Чт: 11:00-20:00; Пт: 11:00-20:00; Сб: 11:00-20:00; Вс: 11:00-20:00,+05:00,1.8,9,87070216560,,,,,,,https://instagram.com/allure_jwlr,,,https://wa.me/77070216560,,,,,,,,43.245227,76.941103,https://2gis.com/firm/70000001069090233,branch
Almaty,продуктовый магазин,Продуктовые магазины; Бытовая химия; Доставка продуктов,"улица Розыбакиева, 289 блок 2",1 этаж,050060,,Бостандыкский район,Алматы,,Алматы,Казахстан,Пн: 07:00-02:00; Вт: 07:00-02:00; Ср: 07:00-02:00; Чт: 07:00-02:00; Пт: 07:00-02:00; Сб: 07:00-02:00; Вс: 07:00-02:00,+05:00,2.6,41,87772006765,,,,,,,,,,,,,,,,,,43.195392,76.892967,https://2gis.com/firm/70000001030563944,branch
Almaty Food,продуктовый магазин,Продуктовые магазины; Разливное пиво,"улица Каныша Сатпаева, 109",,050046,,Бостандыкский район,Алматы,,Алматы,Казахстан,Пн: 00:00-24:00; Вт: 00:00-24:00; Ср: 00:00-24:00; Чт: 00:00-24:00; Пт: 00:00-24:00; Сб: 00:00-24:00; Вс: 00:00-24:00,+05:00,4.1,16,87758518107,87780087531,,,,,,,,,,,,,,,,,43.234244,76.881811,https://2gis.com/firm/70000001086736569,branch
Almaty heels ,магазин,Одежда / обувь для танцев,"Коктем-3 микрорайон, 17",24 бутик; цокольный этаж,050040,Коктем-3 м-н,Бостандыкский район,Алматы,,Алматы,Казахстан,Пн: 11:00-18:30; Вт: 11:00-18:30; Ср: 11:00-18:30; Чт: 11:00-18:30; Пт: 11:00-18:30; Сб: 11:00-18:30; Вс: 11:00-18:30 (по предварительной записи),+05:00,4.6,10,87074514519,87477588809,,,,,,https://instagram.com/almaty.heels,,,https://wa.me/77074514519,https://wa.me/77477588809,,,,,,,43.236216,76.917086,https://2gis.com/firm/70000001089209328,branch
Almaty.shlem,магазин,Мототехника; Спортивный инвентарь; Спортивная одежда / обувь,"улица Жандосова, 58",308 кабинет; 3 этаж,050060,,Бостандыкский район,Алматы,,Алматы,Казахстан,Пн: 10:00-20:30; Вт: 10:00-20:30; Ср: 10:00-20:30; Чт: 10:00-20:30; Пт: 10:00-20:30; Сб: 10:00-20:30; Вс: 10:00-20:30,+05:00,5.0,144,,,,,,,,https://instagram.com/almaty.shlem,,,https://wa.me/77473750682,,,,https://t.me/arslannessipbekov,,,,43.23032,76.896899,https://2gis.com/firm/70000001065025367,branch
Altyn El ,супермаркет,Супермаркеты,"проспект Дулати, 55",,,,Бостандыкский район,Алматы,,Алматы,Казахстан,Пн: 09:00-24:00; Вт: 09:00-24:00; Ср: 09:00-24:00; Чт: 09:00-24:00; Пт: 09:00-24:00; Сб: 09:00-24:00; Вс: 09:00-24:00,+05:00,2.1,23,87000881171,,,,,,,,,,https://wa.me/77000881171,,,,,,,,43.165412,76.891655,https://2gis.com/firm/70000001065508994,branch
Alu market,магазин,Продуктовые магазины,"проспект Аль-Фараби, 65",1 этаж,050040,,Бостандыкский район,Алматы,,Алматы,Казахстан,Пн: 09:00-23:00; Вт: 09:00-23:00; Ср: 09:00-23:00; Чт: 09:00-23:00; Пт: 09:00-23:00; Сб: 09:00-23:00; Вс: 09:00-23:00,+05:00,2.7,44,,,,,,,,,,,,,,,,,,,43.221203,76.932462,https://2gis.com/firm/9429940000797304,branch
Amanat market,мини-маркет,Супермаркеты,"улица Абиша Кекилбайулы, 97а",1 этаж,050060,,Бостандыкский район,Алматы,,Алматы,Казахстан,Пн: 08:00-24:00; Вт: 08:00-24:00; Ср: 08:00-24:00; Чт: 08:00-24:00; Пт: 08:00-24:00; Сб: 08:00-24:00; Вс: 09:00-24:00,+05:00,3.7,28,87774565201,,,,,,,,,,https://wa.me/77774565201,,,,,,,,43.214007,76.886504,https://2gis.com/firm/70000001035169152,branch
Amazon Store,магазин,Бытовая техника,"улица Жамбыла, 114/85",112 офис; А блок; 1 этаж,050012,,Алмалинский район,Алматы,,Алматы,Казахстан,Пн: 10:00-19:30; Вт: 10:00-19:30; Ср: 10:00-19:30; Чт: 10:00-19:30; Пт: 10:00-19:30; Сб: 10:00-19:30; Вс: 10:00-19:30,+05:00,3.3,26,87066508202,,,,,,,,,,https://wa.me/77066508202,,,,,,,,43.246417,76.926087,https://2gis.com/firm/70000001079991415,branch
Amir Market,магазин,Продуктовые магазины,"улица Розыбакиева, 336 блок 4",,050060,,Бостандыкский район,Алматы,,Алматы,Казахстан,Пн: 09:00-23:00; Вт: 09:00-23:00; Ср: 09:00-23:00; Чт: 09:00-23:00; Пт: 09:00-23:00; Сб: 09:00-23:00; Вс: 09:00-23:00,+05:00,4.4,8,87066666023,,,,,,,,,,https://wa.me/77066666023,,,,,,,,43.207362,76.894705,https://2gis.com/firm/70000001079584345,branch
Amir_baby_toys,магазин,Детская одежда; Игрушки,,,050009,,Алмалинский район,Алматы,,Алматы,Казахстан,Пн: 09:00-21:00; Вт: 09:00-21:00; Ср: 09:00-21:00; Чт: 09:00-21:00; Пт: 09:00-21:00; Сб: 09:00-21:00; Вс: 09:00-21:00,+05:00,4.2,3,87077470909,87477131288,,,,,,https://instagram.com/amir_baby_toys,,,https://wa.me/77077470909,https://wa.me/77477131288,,,,,,,43.239519,76.898807,https://2gis.com/firm/70000001079694616,branch
Amway,магазин,Бытовая химия,"улица Каныша Сатпаева, 31",94 офис; 3 этаж,050008,,Бостандыкский район,Алматы,,Алматы,Казахстан,"Пн: 08:00-13:00, 14:00-18:00; Вт: 08:00-13:00, 14:00-18:00; Ср: 08:00-13:00, 14:00-18:00; Чт: 08:00-13:00, 14:00-18:00; Пт: 08:00-13:00, 14:00-18:00; Сб: 08:00-13:00, 14:00-18:00; Вс: 08:00-13:00, 14:00-18:00",+05:00,1.0,2,87000705277,,,,,,,,,,https://wa.me/77000705277,,,,,,,,43.236239,76.909515,https://2gis.com/firm/70000001086769743,branch
Ani store,магазин,Игрушки; Часы / Аксессуары; Корпусная мебель; Офисная мебель,"улица Ботанический Сад, 21",6/1 кабинет,050060,,Бостандыкский район,Алматы,,Алматы,Казахстан,Пн: 10:00-17:00; Вт: 10:00-17:00; Ср: 10:00-17:00; Чт: 10:00-17:00; Пт: 10:00-17:00,+05:00,1.1,1,87476282286,,,,http://ani-store.satu.kz,,,,,,https://wa.me/77476282286,,,,,,,,43.218205,76.906776,https://2gis.com/firm/70000001067592392,branch
AnnaSteisha,магазин,Нижнее бельё; Носки / Колготки; Товары для беременных / Товары для кормящих мам,"проспект Гагарина, 124",цокольный этаж; вход с ул. Айманова,050057,,Бостандыкский район,Алматы,,Алматы,Казахстан,Пн: 10:00-21:00; Вт: 10:00-21:00; Ср: 10:00-21:00; Чт: 10:00-21:00; Пт: 10:00-21:00; Сб: 10:00-21:00; Вс: 10:00-21:00,+05:00,5.0,32,87073019009,87007370733,,,,,,https://instagram.com/annasteisha.lingerie,,,https://wa.me/77073019009,,,,,,,,43.238061,76.897069,https://2gis.com/firm/70000001059932082,branch
Appennino ,магазин,Мужская одежда; Верхняя одежда,"улица Жолдасбекова, 9а",223 бутик; 2 этаж,050051,Самал-1 м-н,Медеуский район,Алматы,,Алматы,Казахстан,Пн: 10:00-20:00; Вт: 10:00-20:00; Ср: 10:00-20:00; Чт: 10:00-20:00; Пт: 10:00-20:00; Сб: 10:00-20:00; Вс: 10:00-20:00,+05:00,,,87088395600,,,,,,,,,,https://wa.me/77088395600,,,,,,,,43.234604,76.955702,https://2gis.com/firm/70000001088191795,branch
Apple city,мини-маркет,Супермаркеты,"улица Ергожина, 8",1 этаж,050060,,Бостандыкский район,Алматы,,Алматы,Казахстан,Пн: 08:00-01:00; Вт: 08:00-01:00; Ср: 08:00-01:00; Чт: 08:00-01:00; Пт: 08:00-01:00; Сб: 08:00-01:00; Вс: 08:00-01:00,+05:00,1.3,42,,,,,,,,,,,,,,,,,,,43.208346,76.910618,https://2gis.com/firm/70000001047810695,branch
Apple City,мини-маркет,Супермаркеты,"улица Ходжанова, 78 блок 7",1 этаж,050060,,Бостандыкский район,Алматы,,Алматы,Казахстан,Пн: 08:00-01:00; Вт: 08:00-01:00; Ср: 08:00-01:00; Чт: 08:00-01:00; Пт: 08:00-01:00; Сб: 08:00-01:00; Вс: 08:00-01:00,+05:00,1.9,12,,,,,,,,,,,,,,,,,,,43.206925,76.912191,https://2gis.com/firm/70000001083829533,branch
Apple City,мини-маркет,Супермаркеты,"проспект Аль-Фараби, 101",,050060,,Бостандыкский район,Алматы,,Алматы,Казахстан,Пн: 08:00-01:00; Вт: 08:00-01:00; Ср: 08:00-01:00; Чт: 08:00-01:00; Пт: 08:00-01:00; Сб: 08:00-01:00; Вс: 08:00-01:00,+05:00,1.3,19,87013597239,,,,,,,,,,https://wa.me/77013597239,,,,,,,,43.208146,76.912925,https://2gis.com/firm/70000001067395552,branch
Apple Town,мини-маркет,Супермаркеты; Алкогольные напитки,"улица Аскарова, 8",1 этаж,050043,,Ауэзовский район,Алматы,,Алматы,Казахстан,Пн: 08:00-01:00; Вт: 08:00-01:00; Ср: 08:00-01:00; Чт: 08:00-01:00; Пт: 08:00-01:00; Сб: 08:00-01:00; Вс: 08:00-01:00,+05:00,2.4,8,,,,,,,,,,,,,,,,,,,43.198797,76.867367,https://2gis.com/firm/70000001044081902,branch
Aq-Sultan,продуктовый магазин,Продуктовые магазины,"улица Сейхун, 30Б",,050031,,,Алматы,,Алматы,Казахстан,Пн: 08:00-24:00; Вт: 08:00-24:00; Ср: 08:00-24:00; Чт: 08:00-24:00; Пт: 08:00-24:00; Сб: 08:00-24:00; Вс: 08:00-24:00,+05:00,5.0,5,87074478081,87082665460,,,,,,,,,https://wa.me/77074478081,https://wa.me/77082665460,,,,,,,43.233429,76.819038,https://2gis.com/firm/70000001049199959,branch
Aqjol,продуктовый магазин,Продуктовые магазины,"улица Мауленова, 108",117 помещение,050022,,Алмалинский район,Алматы,,Алматы,Казахстан,Пн: 09:00-22:00; Вт: 09:00-22:00; Ср: 09:00-22:00; Чт: 09:00-22:00; Пт: 09:00-22:00; Сб: 09:00-22:00; Вс: 09:00-22:00,+05:00,2.1,23,87014376149,,,,,,,,,,https://wa.me/77014376149,,,,,,,,43.245209,76.935927,https://2gis.com/firm/70000001054830211,branch
Aqua home,магазин,Сантехника; Мебель для ванных комнат; Аксессуары для ванных комнат,"улица Шевченко, 204 к5",34 бутик; 1 этаж,050009,,Алмалинский район,Алматы,,Алматы,Казахстан,Пн: 09:00-18:00; Вт: 09:00-18:00; Ср: 09:00-18:00; Чт: 09:00-18:00; Пт: 09:00-18:00; Сб: 09:00-18:00; Вс: 09:00-18:00,+05:00,5.0,3,87273794311,87089151437,,,,,,https://instagram.com/aqua.homekz,,,https://wa.me/77083203939,,,,,,,,43.241718,76.890879,https://2gis.com/firm/9429940001667386,branch
Aqua home,магазин,Сантехника; Мебель для ванных комнат; Аксессуары для ванных комнат,"улица Шевченко, 204а",1 корпус; 9 бутик; 1 этаж,050009,,Алмалинский район,Алматы,,Алматы,Казахстан,Пн: 09:00-18:00; Вт: 09:00-18:00; Ср: 09:00-18:00; Чт: 09:00-18:00; Пт: 09:00-18:00; Сб: 09:00-18:00; Вс: 09:00-18:00,+05:00,5.0,1,87083203939,87089151437,,,,,,https://instagram.com/aqua.homekz,,,https://wa.me/77083203939,,,,,,,,43.242296,76.890982,https://2gis.com/firm/9429940001416119,branch
AR,продуктовый магазин,Продуктовые магазины,"микрорайон Самал-1, 17",1 этаж,050051,Самал-1 м-н,Медеуский район,Алматы,,Алматы,Казахстан,Пн: 08:00-24:00; Вт: 08:00-24:00; Ср: 08:00-24:00; Чт: 08:00-24:00; Пт: 08:00-24:00; Сб: 08:00-24:00; Вс: 08:00-24:00,+05:00,2.5,20,87272620111,,,,,,,,,,,,,,,,,,43.235558,76.954807,https://2gis.com/firm/9429940000917110,branch
AR House,магазин,Посуда; Домашний текстиль; Ароматовары; Подарочная упаковка,"проспект Абая, 109в",цокольный этаж,050008,,Алмалинский район,Алматы,,Алматы,Казахстан,Пн: 10:00-22:00; Вт: 10:00-22:00; Ср: 10:00-22:00; Чт: 10:00-22:00; Пт: 10:00-22:00; Сб: 10:00-22:00; Вс: 10:00-22:00,+05:00,3.4,8,87075415415,87073294946,,,,,,https://instagram.com/arhouse.kz,,,https://wa.me/77075415415,,,,,,,,43.240438,76.905819,https://2gis.com/firm/70000001053089785,branch
Arnur,продовольственный магазин,Продуктовые магазины,"микрорайон Орбита-3, 16",1 этаж,050043,Орбита-3 м-н,Бостандыкский район,Алматы,,Алматы,Казахстан,Пн: 09:00-22:00; Вт: 09:00-22:00; Ср: 09:00-22:00; Чт: 09:00-22:00; Пт: 09:00-22:00; Сб: 09:00-22:00; Вс: 09:00-22:00,+05:00,4.2,13,87772488882,87783564033,87074727229,,,,,,,,https://wa.me/77783564033,,,,,,,,43.201567,76.874852,https://2gis.com/firm/9429940000791714,branch
Arsenal,мини-маркет,Супермаркеты,"проспект Дулати, 55Б",1 этаж,,,Бостандыкский район,Алматы,,Алматы,Казахстан,Пн: 08:00-23:00; Вт: 08:00-23:00; Ср: 08:00-23:00; Чт: 08:00-23:00; Пт: 08:00-23:00; Сб: 08:00-23:00; Вс: 08:00-23:00,+05:00,1.7,4,,,,,,,,,,,,,,,,,,,43.163992,76.891876,https://2gis.com/firm/9429940001227249,branch
Artique,магазин,Женская одежда; Обувные магазины; Сумки / Кожгалантерея,"улица Егизбаева, 7/10 к1",1 этаж,050046,,Бостандыкский район,Алматы,,Алматы,Казахстан,Пн: 10:00-20:00; Вт: 10:00-20:00; Ср: 10:00-20:00; Чт: 10:00-20:00; Пт: 10:00-20:00; Сб: 10:00-20:00; Вс: 10:00-20:00,+05:00,1.8,4,87074168464,,,,,,,https://instagram.com/artique_showroom_kz,,,,,,,,,,,43.230069,76.885128,https://2gis.com/firm/70000001026945675,branch
Artlamp,магазин,Светотехника,"улица Шевченко, 204а",1 бутик; 1 этаж,050009,,Алмалинский район,Алматы,,Алматы,Казахстан,Пн: 10:00-18:00; Вт: 10:00-18:00; Ср: 10:00-18:00; Чт: 10:00-18:00; Пт: 10:00-18:00; Сб: 10:00-18:00; Вс: 10:00-18:00,+05:00,3.9,7,87070461047,87014782511,,,,,,https://instagram.com/artlampkz,,,https://wa.me/77014782511,https://wa.me/77070461047,,,,,,,43.242296,76.890982,https://2gis.com/firm/70000001052284357,branch
Asar,мини-маркет,Супермаркеты,"микрорайон Орбита 1, 2",1 этаж,050043,Орбита-1 м-н,Бостандыкский район,Алматы,,Алматы,Казахстан,Пн: 08:00-22:00; Вт: 08:00-22:00; Ср: 08:00-22:00; Чт: 08:00-22:00; Пт: 08:00-22:00; Сб: 08:00-22:00; Вс: 08:00-22:00,+05:00,2.4,56,87479380575,,,,,,,,,,,,,,,,,,43.201853,76.885732,https://2gis.com/firm/9429940000802743,branch
Asar,продуктовый магазин,Супермаркеты,"проспект Гагарина, 100/170",1 этаж,050009,,Алмалинский район,Алматы,,Алматы,Казахстан,Пн: 09:00-23:00; Вт: 09:00-23:00; Ср: 09:00-23:00; Чт: 09:00-23:00; Пт: 09:00-23:00; Сб: 09:00-23:00; Вс: 09:00-23:00,+05:00,1.9,58,87273759572,,,,,,,,,,,,,,,,,,43.23968,76.895034,https://2gis.com/firm/70000001031793670,branch
Asar,продуктовый магазин,Супермаркеты,"микрорайон Орбита 2, 2",1 этаж,050043,Орбита-2 м-н,Бостандыкский район,Алматы,,Алматы,Казахстан,Пн: 09:00-23:00; Вт: 09:00-23:00; Ср: 09:00-23:00; Чт: 09:00-23:00; Пт: 09:00-23:00; Сб: 09:00-23:00; Вс: 09:00-23:00,+05:00,1.9,34,87272657877,,,,,,,,,,,,,,,,,,43.198376,76.88693,https://2gis.com/firm/70000001027661439,branch
Asar,продуктовый магазин,Супермаркеты,"микрорайон Таугуль-1, 58",1 этаж,050042,Таугуль-1 м-н,Ауэзовский район,Алматы,,Алматы,Казахстан,Пн: 08:00-24:00; Вт: 08:00-24:00; Ср: 08:00-24:00; Чт: 08:00-24:00; Пт: 08:00-24:00; Сб: 08:00-24:00; Вс: 08:00-24:00,+05:00,2.4,49,87273026689,,,,,,,,,,,,,,,,,,43.212876,76.87842,https://2gis.com/firm/9429940001023597,branch
Asem,продуктовый магазин,Продуктовые магазины,"улица Ислама Каримова, 220/2",,050046,,Бостандыкский район,Алматы,,Алматы,Казахстан,Пн: 08:00-23:00; Вт: 08:00-23:00; Ср: 08:00-23:00; Чт: 08:00-23:00; Пт: 08:00-23:00; Сб: 08:00-23:00; Вс: 08:00-23:00,+05:00,3.5,17,87718678888,,,,,,,,,,https://wa.me/77718678888,,,,,,,,43.237209,76.885237,https://2gis.com/firm/70000001061932784,branch
Askar,продуктовый магазин,Продуктовые магазины,"улица Радостовца, 223",1 этаж,050060,,Бостандыкский район,Алматы,,Алматы,Казахстан,Пн: 09:00-23:00; Вт: 09:00-23:00; Ср: 09:00-23:00; Чт: 09:00-23:00; Пт: 09:00-23:00; Сб: 09:00-23:00; Вс: 09:00-23:00,+05:00,4.4,20,87056223640,,,,,,,,,,https://wa.me/77056223640,,,,,,,,43.222609,76.893451,https://2gis.com/firm/9429940000793029,branch
Aspan,мини-маркет,Супермаркеты,"улица Ислама Каримова, 203 блок 6",,050046,,Алмалинский район,Алматы,,Алматы,Казахстан,Пн: 08:00-23:30; Вт: 08:00-23:30; Ср: 08:00-23:30; Чт: 08:00-23:30; Пт: 08:00-23:30; Сб: 08:00-23:30; Вс: 08:00-23:30,+05:00,3.0,21,87471996440,,,,,,,,,,https://wa.me/77471996440,,,,,,,,43.23954,76.884453,https://2gis.com/firm/70000001081065014,branch
Aspdf.kz,магазин,Фототовары; Аудиотехника / Видеотехника,"улица Жарокова, 166",1 этаж,050057,,Бостандыкский район,Алматы,,Алматы,Казахстан,Пн: 10:00-18:00; Вт: 10:00-18:00; Ср: 10:00-18:00; Чт: 10:00-18:00; Пт: 10:00-18:00; Сб: 10:00-15:00,+05:00,4.5,24,87056033366,87476757900,,,http://aspdf.kz,,,https://instagram.com/aspdf.kz,,,https://wa.me/77056033366,,,,,,,,43.231457,76.900676,https://2gis.com/firm/70000001041425733,branch
Asyl,магазин,Бытовая химия; Канцтовары; Посуда; Товары для праздников; Игрушки,"проспект Гагарина, 214/1",,050060,,Бостандыкский район,Алматы,,Алматы,Казахстан,Пн: 09:00-21:00; Вт: 09:00-21:00; Ср: 09:00-21:00; Чт: 09:00-21:00; Пт: 09:00-21:00; Сб: 09:00-21:00; Вс: 09:00-21:00,+05:00,5.0,6,87762309977,,,,,,,https://instagram.com/asyl_syilyq,,,https://wa.me/77762309977,,,,,,,,43.216021,76.898064,https://2gis.com/firm/70000001080061381,branch
Aua,магазин,Косметика / Парфюмерия,"Василия Клочкова улица, 123",104 офис; 1 этаж,050057,,Бостандыкский район,Алматы,,Алматы,Казахстан,Пн: 12:00-20:00; Вт: 12:00-20:00; Ср: 12:00-20:00; Чт: 12:00-20:00; Пт: 12:00-20:00; Сб: 12:00-20:00; Вс: 12:00-20:00,+05:00,,,87088151705,,,,,,,https://instagram.com/auaparfume,,,https://wa.me/77088151705,,,,,,,,43.236895,76.90188,https://2gis.com/firm/70000001058937116,branch
Auramatras,магазин,Матрасы; Домашний текстиль; Ортопедические товары,"улица Навои, 208/2",цокольный этаж,050043,,Бостандыкский район,Алматы,,Алматы,Казахстан,Пн: 09:00-22:00; Вт: 09:00-22:00; Ср: 09:00-22:00; Чт: 09:00-22:00; Пт: 09:00-22:00; Сб: 09:00-22:00; Вс: 09:00-22:00,+05:00,5.0,3,87777211779,,,,,,,https://instagram.com/auramatras.kz,,,https://wa.me/77777211779,,,,,,,,43.206299,76.886818,https://2gis.com/firm/70000001093610144,branch
Ayan,продуктовый магазин,Продуктовые магазины,"улица Каныша Сатпаева, 72а",,050046,,Бостандыкский район,Алматы,,Алматы,Казахстан,Пн: 08:00-02:00; Вт: 08:00-02:00; Ср: 08:00-02:00; Чт: 08:00-02:00; Пт: 08:00-02:00; Сб: 08:00-02:00; Вс: 08:00-02:00,+05:00,1.8,54,87072026585,,,,,,,,,,https://wa.me/77072026585,,,,,,,,43.234308,76.889146,https://2gis.com/firm/9429940000797561,branch
Azali,магазин,Косметика / Парфюмерия,"улица Сулейменова, 26а",,050042,Таугуль-1 м-н,Ауэзовский район,Алматы,,Алматы,Казахстан,Пн: 11:00-20:00; Вт: 11:00-20:00; Ср: 11:00-20:00; Чт: 11:00-20:00; Пт: 11:00-20:00; Сб: 11:00-20:00; Вс: 11:00-20:00,+05:00,5.0,14,87021650299,,,,,,,https://instagram.com/azali_company,,,https://wa.me/77021650299,,,,,,,,43.211299,76.8782,https://2gis.com/firm/70000001069464842,branch
Baby Mama,магазин,Товары для новорождённых,"улица Басенова, 11",,050060,,Бостандыкский район,Алматы,,Алматы,Казахстан,Пн: 00:00-24:00; Вт: 00:00-24:00; Ср: 00:00-24:00; Чт: 00:00-24:00; Пт: 00:00-24:00; Сб: 00:00-24:00; Вс: 00:00-24:00,+05:00,,,87751324089,87475260388,,,,,,https://instagram.com/babymama.kz,,,https://wa.me/77475260388,https://wa.me/77751324089,,,,,,,43.222307,76.898862,https://2gis.com/firm/70000001061219734,branch
Babyone,магазин,Товары для новорождённых; Товары для беременных / Товары для кормящих мам; Детская одежда; Игрушки; Детская мебель,"улица Тимирязева, 42 к3",2 этаж,050057,,Бостандыкский район,Алматы,,Алматы,Казахстан,Пн: 10:00-22:00; Вт: 10:00-22:00; Ср: 10:00-22:00; Чт: 10:00-22:00; Пт: 10:00-22:00; Сб: 10:00-22:00; Вс: 10:00-22:00,+05:00,4.5,8,87476478086,,,,,,,https://instagram.com/babyone.kz,,,,,,,,,,,43.22515,76.909917,https://2gis.com/firm/70000001093748607,branch
Babystore,магазин,Детская одежда; Товары для новорождённых; Детская обувь; Игрушки; Товары для беременных / Товары для кормящих мам,"микрорайон Самал-2, 111",3 этаж,050051,Самал-2 м-н,Медеуский район,Алматы,,Алматы,Казахстан,Пн: 10:00-22:00; Вт: 10:00-22:00; Ср: 10:00-22:00; Чт: 10:00-22:00; Пт: 10:00-22:00; Сб: 10:00-22:00; Вс: 10:00-22:00,+05:00,3.4,15,87071342396,,,,,,,https://instagram.com/babystore_kz_,https://facebook.com/usababystore.kz,,https://wa.me/77071342396,,,,,,,,43.233904,76.956518,https://2gis.com/firm/70000001033785939,branch
Baiindi home,магазин,Посуда,"улица Мамыр, 1",5 бутик; 1 этаж,050045,Нур Алатау м-н,Бостандыкский район,Алматы,,Алматы,Казахстан,Пн: 10:00-19:00; Вт: 10:00-19:00; Ср: 10:00-19:00; Чт: 10:00-19:00; Пт: 10:00-19:00; Сб: 10:00-19:00; Вс: 10:00-19:00,+05:00,,,87071763665,,,,,,,https://instagram.com/baiindi_home,,,https://wa.me/77071763665,,,,,,,,43.193827,76.903683,https://2gis.com/firm/70000001065144349,branch
Baiindi shop,магазин,Обувные магазины; Носки / Колготки; Бижутерия; Женская одежда; Мужская одежда,"улица Мамыр, 1",6 бутик; 1 этаж,050045,Нур Алатау м-н,Бостандыкский район,Алматы,,Алматы,Казахстан,Пн: 10:00-19:30; Вт: 10:00-19:30; Ср: 10:00-19:30; Чт: 10:00-19:30; Пт: 10:00-19:30; Сб: 10:00-19:30; Вс: 10:00-19:30,+05:00,4.0,1,87071763665,,,,,,,,,,https://wa.me/77071763665,,,,,,,,43.193827,76.903683,https://2gis.com/firm/70000001030251302,branch
BalaBaloo,магазин,Товары для новорождённых,"микрорайон Алмагуль, 3а",1 этаж,050060,Алмагуль м-н,Бостандыкский район,Алматы,,Алматы,Казахстан,Пн: 10:00-19:00; Вт: 10:00-19:00; Ср: 10:00-19:00; Чт: 10:00-19:00; Пт: 10:00-19:00; Сб: 10:00-19:00,+05:00,4.2,5,87272476019,87017142412,,,http://balabaloo.ru,,,https://instagram.com/balabaloo.kz,,,https://wa.me/77017142412,,,,,,,,43.209988,76.902719,https://2gis.com/firm/70000001030204992,branch
Balajan,продуктовый магазин,Продуктовые магазины,"улица Шевченко, 149",1 этаж,050008,,Алмалинский район,Алматы,,Алматы,Казахстан,Пн: 08:00-24:00; Вт: 08:00-24:00; Ср: 08:00-24:00; Чт: 08:00-24:00; Пт: 08:00-24:00; Сб: 08:00-24:00; Вс: 08:00-24:00,+05:00,3.7,17,87273757459,,,,,,,,,,,,,,,,,,43.243963,76.908267,https://2gis.com/firm/9429940001076476,branch
Bananas,магазин,Посуда; Косметика / Парфюмерия; Керамические изделия; Хозтовары; Канцтовары,"микрорайон Орбита-3, 5/3а",,050043,Орбита-3 м-н,Бостандыкский район,Алматы,,Алматы,Казахстан,Пн: 10:00-19:00; Вт: 10:00-19:00; Ср: 10:00-19:00; Чт: 10:00-19:00; Пт: 10:00-19:00; Сб: 10:00-19:00; Вс: 10:00-19:00,+05:00,5.0,1,87016580140,,,,,,,https://instagram.com/bananas.almaty,,,https://wa.me/77016580140,https://wa.me/77021683101,,,,,,,43.198364,76.878354,https://2gis.com/firm/70000001090076037,branch
Banatida,продуктовый магазин,Продуктовые магазины,"улица Каныша Сатпаева, 8",цокольный этаж,050010,,Медеуский район,Алматы,,Алматы,Казахстан,Пн: 09:00-24:00; Вт: 09:00-24:00; Ср: 09:00-24:00; Чт: 09:00-24:00; Пт: 09:00-24:00; Сб: 09:00-24:00; Вс: 09:00-24:00,+05:00,3.6,98,87016606205,,,,,,,,,,https://wa.me/77016606205,,,,,,,,43.238863,76.952746,https://2gis.com/firm/70000001035731137,branch
Banzai ,продовольственный магазин,Продуктовые магазины,"проспект Гагарина, 230Б",,050060,,Бостандыкский район,Алматы,,Алматы,Казахстан,Пн: 08:00-23:00; Вт: 08:00-23:00; Ср: 08:00-23:00; Чт: 08:00-23:00; Пт: 08:00-23:00; Сб: 08:00-23:00; Вс: 08:00-23:00,+05:00,1.3,44,,,,,,,,,,,https://wa.me/77753263916,,,,,,,,43.215445,76.897982,https://2gis.com/firm/9429940001174661,branch
Barber_top.kz,магазин,Оборудование для салонов красоты,"улица Прокофьева, 244",,050046,,Бостандыкский район,Алматы,,Алматы,Казахстан,Пн: 11:00-20:00; Вт: 11:00-20:00; Ср: 11:00-20:00; Чт: 11:00-20:00; Пт: 11:00-20:00; Сб: 11:00-20:00; Вс: 11:00-20:00,+05:00,5.0,3,87000212426,,,,,,,https://instagram.com/barber_top.kz,,,https://wa.me/77000212426,,,,,,,,43.236145,76.876915,https://2gis.com/firm/70000001080702581,branch
Bastau,магазин,Продуктовые магазины; Хозтовары; Канцтовары,"микрорайон Самал-2, 28",1 этаж,050051,Самал-2 м-н,Медеуский район,Алматы,,Алматы,Казахстан,Пн: 07:00-23:00; Вт: 07:00-23:00; Ср: 07:00-23:00; Чт: 07:00-23:00; Пт: 07:00-23:00; Сб: 07:00-23:00; Вс: 07:00-23:00,+05:00,2.5,8,87052193828,,,,,,,,,,https://wa.me/77052193828,,,,,,,,43.229057,76.955048,https://2gis.com/firm/70000001077265898,branch
Batyr,мини-маркет,Супермаркеты,"улица Нахимова, 51/2",,050040,,Бостандыкский район,Алматы,,Алматы,Казахстан,Пн: 08:30-23:00; Вт: 08:30-23:00; Ср: 08:30-23:00; Чт: 08:30-23:00; Пт: 08:30-23:00; Сб: 09:00-22:00; Вс: 09:00-22:00,+05:00,5.0,6,87789862845,,,,,,,,,,https://wa.me/77789862845,,,,,,,,43.224537,76.935579,https://2gis.com/firm/70000001082002212,branch
Be Happy,мини-маркет,Супермаркеты,"улица Масанчи, 76",,050012,,Алмалинский район,Алматы,,Алматы,Казахстан,Пн: 09:00-23:00; Вт: 09:00-23:00; Ср: 09:00-23:00; Чт: 09:00-23:00; Пт: 09:00-23:00; Сб: 09:00-23:00; Вс: 09:00-23:00,+05:00,1.9,40,87070271727,,,,,,,,,,https://wa.me/77070271727,,,,,,,,43.246293,76.930321,https://2gis.com/firm/70000001029517564,branch
Beauty brands,магазин,Косметика / Парфюмерия,"улица Навои, 60",1 этаж,050042,,Ауэзовский район,Алматы,,Алматы,Казахстан,Пн: 10:00-18:00; Вт: 10:00-18:00; Ср: 10:00-18:00; Чт: 10:00-18:00; Пт: 10:00-18:00,+05:00,4.4,4,87770352527,87770352526,,,,,,https://instagram.com/beautybrands_opt,,,https://wa.me/77770352527,https://wa.me/77770352526,,,,,,,43.215812,76.881916,https://2gis.com/firm/70000001065366149,branch
Beauty Ри-О-Ри,магазин,Косметика / Парфюмерия,"микрорайон Казахфильм, 14",,050023,Казахфильм м-н,Бостандыкский район,Алматы,,Алматы,Казахстан,Пн: 10:00-19:00; Вт: 10:00-19:00; Ср: 10:00-19:00; Чт: 10:00-19:00; Пт: 10:00-19:00; Сб: 10:00-19:00; Вс: 10:00-19:00,+05:00,5.0,2,87272712371,87272335751,87272915730,,,,,https://instagram.com/beauty.riori.kz,,,,,,,,,,,43.193656,76.905314,https://2gis.com/firm/70000001040453384,branch
Beauty Ри-О-Ри,магазин,Косметика / Парфюмерия,"бульвар Мендикулова, 98",1 этаж,050051,Самал-2 м-н,Медеуский район,Алматы,,Алматы,Казахстан,Пн: 10:00-20:00; Вт: 10:00-20:00; Ср: 10:00-20:00; Чт: 10:00-20:00; Пт: 10:00-20:00; Сб: 10:00-20:00; Вс: 10:00-20:00,+05:00,,,87272712371,87272335751,87272915730,,,,,https://instagram.com/beauty.riori.kz,,,,,,,,,,,43.232857,76.953475,https://2gis.com/firm/70000001040453337,branch
Beauty Ри-О-Ри,магазин,Косметика / Парфюмерия,"улица Шевченко, 32",Ш6 бутик; 1 этаж,050010,,Медеуский район,Алматы,,Алматы,Казахстан,Пн: 11:00-20:00; Вт: 11:00-20:00; Ср: 11:00-20:00; Чт: 11:00-20:00; Пт: 11:00-20:00; Сб: 11:00-20:00; Вс: 11:00-20:00,+05:00,2.0,3,87272712371,87272335751,87272915730,,,,,https://instagram.com/beauty.riori.kz,,,,,,,,,,,43.246518,76.950824,https://2gis.com/firm/9429940001141465,branch
Beauty Ри-О-Ри,магазин,Косметика / Парфюмерия,"проспект Абая, 141",122 бутик; 1 этаж; торговый дом Арена,050009,,Алмалинский район,Алматы,,Алматы,Казахстан,Пн: 10:00-20:00; Вт: 10:00-20:00; Ср: 10:00-20:00; Чт: 10:00-20:00; Пт: 10:00-20:00; Сб: 10:00-20:00; Вс: 10:00-19:00,+05:00,4.9,1,87272712371,87272335751,87272915730,,,,,https://instagram.com/beauty.riori.kz,,,,,,,,,,,43.239423,76.896059,https://2gis.com/firm/9429940001069230,branch
Bella.kz,магазин,Домашний текстиль,"улица Кенесары хана, 54/12",1 этаж,050070,Каргалы м-н,Наурызбайский район,Алматы,,Алматы,Казахстан,Пн: 10:00-22:00; Вт: 10:00-22:00; Ср: 10:00-22:00; Чт: 10:00-22:00; Пт: 10:00-22:00; Сб: 10:00-22:00; Вс: 10:00-22:00 (по предварительной записи),+05:00,5.0,15,87019810236,87072094333,,,,,,https://instagram.com/postelnoe_bella.kz,,,https://wa.me/77019810236,https://wa.me/77072094333,,,,,,,43.170505,76.872365,https://2gis.com/firm/70000001027662600,branch
Beom Company,магазин,Электротехника; Сварочное оборудование; Котельное оборудование; Насосное оборудование; Сварочные материалы; Бензиновое / дизельное оборудование; Электронагревательное оборудование,"улица Розыбакиева, 94",,050009,,Алмалинский район,Алматы,,Алматы,Казахстан,Пн: 08:00-16:00; Вт: 08:00-16:00; Ср: 08:00-16:00; Чт: 08:00-16:00; Пт: 08:00-16:00,+05:00,4.9,8,87011254334,87272250852,87273910000,info@beom.kz,http://beom.kz,http://ресанта.kz,http://akb1.kz,,,,https://wa.me/77021920000,https://wa.me/77011254334,,,https://t.me/ultimatu31,,,,43.23996,76.890029,https://2gis.com/firm/9429940001406773,branch
Bereke,магазин,Продуктовые магазины,"проспект Гагарина, 135в",1 этаж,050060,,Бостандыкский район,Алматы,,Алматы,Казахстан,Пн: 09:00-02:00; Вт: 09:00-02:00; Ср: 09:00-02:00; Чт: 09:00-02:00; Пт: 09:00-02:00; Сб: 09:00-02:00; Вс: 09:00-02:00,+05:00,4.3,7,87018667733,,,,,,,,,,,,,,,,,,43.232901,76.89422,https://2gis.com/firm/70000001064911927,branch
Bereke,магазин,Продуктовые магазины; Средства гигиены; Хозтовары; Бытовая химия,"улица Каныша Сатпаева, 145",,050046,,Ауэзовский район,Алматы,,Алматы,Казахстан,Пн: 08:00-23:00; Вт: 08:00-23:00; Ср: 08:00-23:00; Чт: 08:00-23:00; Пт: 08:00-23:00; Сб: 08:00-23:00; Вс: 08:00-23:00,+05:00,4.4,11,87074986815,,,,,,,,,,https://wa.me/77074986815,,,,,,,,43.232293,76.871186,https://2gis.com/firm/70000001060771244,branch
Bereke,продовольственный магазин,Продуктовые магазины; Хозтовары,"улица Тимирязева, 56а",1 этаж,050060,,Бостандыкский район,Алматы,,Алматы,Казахстан,Пн: 08:00-23:00; Вт: 08:00-23:00; Ср: 08:00-23:00; Чт: 08:00-23:00; Пт: 08:00-23:00; Сб: 08:00-23:00; Вс: 08:00-23:00,+05:00,3.1,7,,,,,,,,,,,,,,,,,,,43.224285,76.897666,https://2gis.com/firm/9429940001692810,branch
Bereket ,магазин,Молочные продукты; Мясо / Полуфабрикаты; Жир / Маслопродукты; Специи,"улица Каныша Сатпаева, 90/58",,050046,,Бостандыкский район,Алматы,,Алматы,Казахстан,Пн: 10:00-20:30; Вт: 10:00-20:30; Ср: 10:00-20:30; Чт: 10:00-20:30; Пт: 10:00-20:30; Сб: 10:00-20:30; Вс: 10:00-20:30,+05:00,4.0,7,87057520203,87051594313,,,,,,https://instagram.com/berek_et_almaty,,,https://wa.me/77057520203,https://wa.me/77051594313,,,,,,,43.230984,76.877836,https://2gis.com/firm/70000001082535394,branch
Berlin Tires,магазин,Шины / Диски; Хранение шин; Шиномонтаж,"улица Щепеткова, 117",,050035,,Ауэзовский район,Алматы,,Алматы,Казахстан,Пн: 10:00-18:00; Вт: 10:00-18:00; Ср: 10:00-18:00; Чт: 10:00-18:00; Пт: 10:00-18:00; Сб: 10:00-18:00; Вс: 10:00-18:00,+05:00,5.0,3,87018270900,87056773121,,,,,,https://instagram.com/berlin_tires.kz,,,https://wa.me/77018270900,,,,,,,,43.230325,76.871882,https://2gis.com/firm/70000001092855608,branch
Bernard_shop1,магазин,Продуктовые магазины,"улица Кунаева, 164",1 этаж,050010,,Медеуский район,Алматы,,Алматы,Казахстан,Пн: 09:00-21:00; Вт: 09:00-21:00; Ср: 09:00-21:00; Чт: 09:00-21:00; Пт: 09:00-21:00; Сб: 09:00-21:00; Вс: 09:00-21:00,+05:00,4.1,9,87759251812,,,,,,,https://instagram.com/bernard_shop1,,,https://wa.me/77783765551,,,,,,,,43.243391,76.95193,https://2gis.com/firm/70000001065207116,branch
Best,продуктовый магазин,Продуктовые магазины,"улица Курмангазы, 175",1 этаж,050009,,Алмалинский район,Алматы,,Алматы,Казахстан,Пн: 08:00-22:30; Вт: 08:00-22:30; Ср: 08:00-22:30; Чт: 08:00-22:30; Пт: 08:00-22:30; Сб: 08:00-22:30; Вс: 08:00-22:30,+05:00,2.8,7,,,,,,,,,,,,,,,,,,,43.241195,76.896056,https://2gis.com/firm/9429940000817326,branch
Big ban,магазин,Отделочные материалы; Фасадные материалы / конструкции; Декоративные отделочные элементы и материалы; Облицовочный камень; Лаки / Краски,"улица Шевченко, 204 к5","48,59 бутик; цокольный этаж",050009,,Алмалинский район,Алматы,,Алматы,Казахстан,Пн: 10:00-17:00; Вт: 10:00-17:00; Ср: 10:00-17:00; Чт: 10:00-17:00; Пт: 10:00-17:00; Сб: 10:00-17:00; Вс: 10:00-17:00,+05:00,,,87273955930,87080707006,,,,,,,,,https://wa.me/77080707006,,,,,,,,43.24227,76.890624,https://2gis.com/firm/9429940000962940,branch
Bizzaro,магазин,Женская одежда; Головные / шейные уборы; Сумки / Кожгалантерея,"проспект Сейфуллина, 617",2 этаж,050013,,Бостандыкский район,Алматы,,Алматы,Казахстан,Пн: 10:00-22:00; Вт: 10:00-22:00; Ср: 10:00-22:00; Чт: 10:00-22:00; Пт: 10:00-22:00; Сб: 10:00-22:00; Вс: 10:00-22:00,+05:00,4.1,6,,,,,,,,,,,,,,,,,,,43.234058,76.935084,https://2gis.com/firm/70000001082810512,branch
BohoinAsia,магазин,Женская одежда,"улица Тимирязева, 42/14",,050057,,Бостандыкский район,Алматы,,Алматы,Казахстан,Пн: 12:00-20:00; Вт: 12:00-20:00; Ср: 12:00-20:00; Чт: 12:00-20:00; Пт: 12:00-20:00; Сб: 12:00-20:00; Вс: 12:00-20:00,+05:00,5.0,1,87019252050,,,,,,,https://instagram.com/bohoinasia,,,https://wa.me/77019252050,,,,,,,,43.21795,76.904,https://2gis.com/firm/70000001069398115,branch
Bona fide,магазин,Женская одежда; Купальники; Носки / Колготки; Спортивная одежда / обувь; Одежда / обувь для танцев,"проспект Сейфуллина, 617",3 этаж,050013,,Бостандыкский район,Алматы,,Алматы,Казахстан,Пн: 10:00-22:00; Вт: 10:00-22:00; Ср: 10:00-22:00; Чт: 10:00-22:00; Пт: 10:00-22:00; Сб: 10:00-22:00; Вс: 10:00-22:00,+05:00,4.4,30,87075277071,,,,,,,https://instagram.com/bonaladieskz,,,https://wa.me/77075277071,,,,https://t.me/bonaladieskz,,,,43.233578,76.935601,https://2gis.com/firm/70000001080965169,branch
BookShop,магазин,Книги; Сувениры,"улица Курмангазы, 36",1 этаж,050010,,Медеуский район,Алматы,,Алматы,Казахстан,"Вт: 10:00-13:00, 14:00-20:00; Ср: 10:00-13:00, 14:00-20:00; Чт: 10:00-13:00, 14:00-20:00; Пт: 10:00-13:00, 14:00-20:00; Сб: 10:00-13:00, 14:00-20:00",+05:00,3.9,12,87272724586,87023647891,,,http://polygon-int.kz,,,https://instagram.com/bookshop.almaty,,,https://wa.me/77023647891,,,,,,,,43.244689,76.95102,https://2gis.com/firm/9429940001303451,branch
Bottega Outlet,магазин,Мужская одежда; Обувные магазины; Часы / Аксессуары,"проспект Абылай хана, 104",,050000,,Алмалинский район,Алматы,,Алматы,Казахстан,Пн: 10:00-22:00; Вт: 10:00-22:00; Ср: 10:00-22:00; Чт: 10:00-22:00; Пт: 10:00-22:00; Сб: 10:00-22:00; Вс: 10:00-22:00,+05:00,,,87027061350,,,,,,,https://instagram.com/bottega_forum,,,https://wa.me/77027061350,https://wa.me/77753666517,,,,,,,43.246677,76.942716,https://2gis.com/firm/70000001089338583,branch
Bottega Outlet,магазин,Мужская одежда; Обувные магазины; Часы / Аксессуары,"проспект Сейфуллина, 617",3 этаж,050013,,Бостандыкский район,Алматы,,Алматы,Казахстан,Пн: 10:00-22:00; Вт: 10:00-22:00; Ср: 10:00-22:00; Чт: 10:00-22:00; Пт: 10:00-22:00; Сб: 10:00-22:00; Вс: 10:00-22:00,+05:00,4.7,43,87027061350,,,,,,,https://instagram.com/bottega_forum,,,https://wa.me/77027061350,https://wa.me/77753666517,,,,,,,43.234449,76.935599,https://2gis.com/firm/70000001043646735,branch
Bree,магазин,Сумки / Кожгалантерея,"улица Тимирязева, 42 к3",7 бутик; 1 этаж,050057,,Бостандыкский район,Алматы,,Алматы,Казахстан,Пн: 10:00-22:00; Вт: 10:00-22:00; Ср: 10:00-22:00; Чт: 10:00-22:00; Пт: 10:00-22:00; Сб: 10:00-22:00; Вс: 10:00-22:00,+05:00,,,87473431271,,,,,,,https://instagram.com/exclusive_brand_almaty,,,https://wa.me/77473431271,,,,,,,,43.225556,76.909699,https://2gis.com/firm/70000001056356031,branch
Bright Hills Market,мини-маркет,Супермаркеты,"улица Роза Жаманова, 46",1 этаж,050045,Нурлытау м-н,Бостандыкский район,Алматы,,Алматы,Казахстан,Пн: 09:00-22:00; Вт: 09:00-22:00; Ср: 09:00-22:00; Чт: 09:00-22:00; Пт: 09:00-22:00; Сб: 09:00-22:00; Вс: 09:00-22:00,+05:00,3.3,12,87017284452,,,,,,,,,,https://wa.me/77017284452,,,,,,,,43.169958,76.899735,https://2gis.com/firm/70000001044020151,branch
Bros socks,магазин,Носки / Колготки; Нижнее бельё; Сумки / Кожгалантерея; Домашний текстиль; Подарочная упаковка,"проспект Абая, 109в",цокольный этаж,050008,,Алмалинский район,Алматы,,Алматы,Казахстан,Пн: 10:00-22:00; Вт: 10:00-22:00; Ср: 10:00-22:00; Чт: 10:00-22:00; Пт: 10:00-22:00; Сб: 10:00-22:00; Вс: 10:00-22:00,+05:00,5.0,2,87017872408,,,,,,,https://instagram.com/brossocks.kz_almaty,,,https://wa.me/77017872408,,,,,,,,43.24046,76.905562,https://2gis.com/firm/9429940001049591,branch
By_fatique,магазин,Женская одежда,"проспект Аль-Фараби, 21 блок 4",1067 офис; 1 этаж,050013,,Бостандыкский район,Алматы,,Алматы,Казахстан,Пн: 12:00-19:00; Вт: 12:00-19:00; Ср: 12:00-19:00; Чт: 12:00-19:00; Пт: 12:00-19:00; Сб: 12:00-19:00; Вс: 12:00-19:00,+05:00,,,87005000548,,,,,,,https://instagram.com/by_fatique_,,,https://wa.me/77005000548,,,,,,,,43.22948,76.942573,https://2gis.com/firm/70000001048210685,branch
Capitol,магазин,Мужская одежда; Женская одежда,"проспект Сейфуллина, 617",3 этаж,050013,,Бостандыкский район,Алматы,,Алматы,Казахстан,Пн: 10:00-22:00; Вт: 10:00-22:00; Ср: 10:00-22:00; Чт: 10:00-22:00; Пт: 10:00-22:00; Сб: 10:00-22:00; Вс: 10:00-22:00,+05:00,1.0,1,,,,,,,,https://instagram.com/capitol.shop.kz,,,,,,,,,,,43.234194,76.935675,https://2gis.com/firm/70000001082810492,branch
Casemobile,магазин,Аксессуары к телефонам,"улица Розыбакиева, 45а",,050046,,Бостандыкский район,Алматы,,Алматы,Казахстан,Пн: 10:00-21:30; Вт: 10:00-21:30; Ср: 10:00-21:30; Чт: 10:00-21:30; Пт: 10:00-21:30; Сб: 10:00-21:30; Вс: 10:00-21:30,+05:00,4.6,22,87079559500,,,,,,,https://instagram.com/casemobile.kz,,,https://wa.me/77079559500,,,,,,,,43.237419,76.889648,https://2gis.com/firm/70000001055231245,branch
City Market,супермаркет,Супермаркеты,"проспект Серкебаева, 91 блок 5",,050060,,Бостандыкский район,Алматы,,Алматы,Казахстан,Пн: 00:00-24:00; Вт: 00:00-24:00; Ср: 00:00-24:00; Чт: 00:00-24:00; Пт: 00:00-24:00; Сб: 00:00-24:00; Вс: 00:00-24:00,+05:00,3.5,43,,,,,,,,,,,,,,,,,,,43.211952,76.897066,https://2gis.com/firm/70000001060639530,branch
City Market,супермаркет,Супермаркеты,"улица Жамбыла, 116",1 этаж,050012,,Алмалинский район,Алматы,,Алматы,Казахстан,Пн: 00:00-24:00; Вт: 00:00-24:00; Ср: 00:00-24:00; Чт: 00:00-24:00; Пт: 00:00-24:00; Сб: 00:00-24:00; Вс: 00:00-24:00,+05:00,2.9,101,87053669138,,,,,,,,,,,,,,,,,,43.246291,76.924659,https://2gis.com/firm/70000001060639493,branch
City Market,супермаркет,Супермаркеты,"улица Утепова, 8",1 этаж,050060,,Бостандыкский район,Алматы,,Алматы,Казахстан,Пн: 00:00-24:00; Вт: 00:00-24:00; Ср: 00:00-24:00; Чт: 00:00-24:00; Пт: 00:00-24:00; Сб: 00:00-24:00; Вс: 00:00-24:00,+05:00,2.7,105,87022679956,,,citymarketkz@mail.ru,,,,,,,https://wa.me/77022679956,,,,,,,,43.218784,76.898354,https://2gis.com/firm/70000001049697154,branch
Code Store,магазин,Детская одежда; Детская обувь; Игрушки,"проспект Сейфуллина, 617",4 этаж; Бутик Mamazin,050013,,Бостандыкский район,Алматы,,Алматы,Казахстан,Пн: 10:00-22:00; Вт: 10:00-22:00; Ср: 10:00-22:00; Чт: 10:00-22:00; Пт: 10:00-22:00; Сб: 10:00-22:00; Вс: 10:00-22:00,+05:00,3.5,6,87776030876,,,,http://codestore.kz,,,https://instagram.com/code_store.kz,,,https://wa.me/77776030876,,,,,,,,43.233708,76.935418,https://2gis.com/firm/70000001046354629,branch
colab.qz,магазин,Сумки / Кожгалантерея; Женская одежда; Головные / шейные уборы; Мужская одежда,"проспект Сейфуллина, 617",2 этаж,050013,,Бостандыкский район,Алматы,,Алматы,Казахстан,Пн: 10:00-22:00; Вт: 10:00-22:00; Ср: 10:00-22:00; Чт: 10:00-22:00; Пт: 10:00-22:00; Сб: 10:00-22:00; Вс: 10:00-22:00,+05:00,4.0,59,87009737883,,,,,,,https://instagram.com/colab.qz,,,https://wa.me/77009737883,,,,,,,,43.233602,76.936163,https://2gis.com/firm/70000001047298954,branch
Columb,продуктовый магазин,Продуктовые магазины,"улица Айманова, 204",1 этаж,050057,,Бостандыкский район,Алматы,,Алматы,Казахстан,Пн: 08:00-22:00; Вт: 08:00-22:00; Ср: 08:00-22:00; Чт: 08:00-22:00; Пт: 08:00-22:00; Сб: 08:00-22:00; Вс: 08:00-22:00,+05:00,1.8,19,87785650412,,,,,,,,,,https://wa.me/77785650412,,,,,,,,43.229244,76.898028,https://2gis.com/firm/9429940000786435,branch
Comfortservice01_almaty,магазин,Бытовая химия,"проспект Абая, 136",,050046,,Бостандыкский район,Алматы,,Алматы,Казахстан,Пн: 10:00-20:00; Вт: 10:00-20:00; Ср: 10:00-20:00; Чт: 10:00-20:00; Пт: 10:00-20:00; Сб: 10:00-20:00; Вс: 10:00-20:00,+05:00,5.0,8,87057758550,,,,,,,https://instagram.com/comfortservice01_almaty,,,https://wa.me/77057758550,,,,,,,,43.237972,76.886107,https://2gis.com/firm/70000001093629860,branch
Converse,магазин,Обувные магазины; Женская одежда; Мужская одежда,"проспект Сейфуллина, 617",,050013,,Бостандыкский район,Алматы,,Алматы,Казахстан,Пн: 10:00-22:00; Вт: 10:00-22:00; Ср: 10:00-22:00; Чт: 10:00-22:00; Пт: 10:00-22:00; Сб: 10:00-22:00; Вс: 10:00-22:00,+05:00,5.0,1,,,,,,,,,,,,,,,,,,,43.234445,76.935158,https://2gis.com/firm/70000001091479516,branch
Converse,магазин,Обувные магазины; Женская одежда; Мужская одежда,"улица Розыбакиева, 263",2 этаж,050060,,Бостандыкский район,Алматы,,Алматы,Казахстан,Пн: 10:00-22:00; Вт: 10:00-22:00; Ср: 10:00-22:00; Чт: 10:00-22:00; Пт: 10:00-22:00; Сб: 10:00-22:00; Вс: 10:00-22:00,+05:00,4.4,8,,,,,,,,,,,,,,,,,,,43.201029,76.891802,https://2gis.com/firm/70000001088746204,branch
Crystal,продовольственный магазин,Продуктовые магазины,"улица Розыбакиева, 286",,050060,,Бостандыкский район,Алматы,,Алматы,Казахстан,Вт: 08:00-01:00; Ср: 08:00-01:00; Чт: 08:00-01:00; Пт: 08:00-01:00; Сб: 08:00-01:00; Вс: 09:00-01:00,+05:00,4.0,34,87473088480,,,,,,,,,,,,,,,,,,43.211695,76.893561,https://2gis.com/firm/9429940000956988,branch
CU,магазин ,Супермаркеты; Быстрое питание; Магазины ингредиентов азиатской кухни; Продукты быстрого приготовления; Косметика / Парфюмерия; Диетические / соевые продукты; Продажа кофе,"улица Навои, 310",,050043,,Бостандыкский район,Алматы,,Алматы,Казахстан,Пн: 00:00-24:00; Вт: 00:00-24:00; Ср: 00:00-24:00; Чт: 00:00-24:00; Пт: 00:00-24:00; Сб: 00:00-24:00; Вс: 00:00-24:00,+05:00,4.9,16,,,,,,,,https://instagram.com/cu_kazakhstan,,,,,,,,,,,43.199686,76.887099,https://2gis.com/firm/70000001094203658,branch
CU,магазин ,Супермаркеты; Быстрое питание; Магазины ингредиентов азиатской кухни; Продукты быстрого приготовления; Косметика / Парфюмерия; Диетические / соевые продукты; Продажа кофе,"проспект Абая, 139",,050009,,Алмалинский район,Алматы,,Алматы,Казахстан,Пн: 00:00-24:00; Вт: 00:00-24:00; Ср: 00:00-24:00; Чт: 00:00-24:00; Пт: 00:00-24:00; Сб: 00:00-24:00; Вс: 00:00-24:00,+05:00,3.6,58,,,,,,,,https://instagram.com/cu_kazakhstan,,,,,,,,,,,43.23966,76.897893,https://2gis.com/firm/70000001093695256,branch
CU,магазин ,Супермаркеты; Быстрое питание; Магазины ингредиентов азиатской кухни; Продукты быстрого приготовления; Косметика / Парфюмерия; Диетические / соевые продукты; Продажа кофе,"улица Каныша Сатпаева, 22",,050013,,Бостандыкский район,Алматы,,Алматы,Казахстан,Пн: 00:20-23:45; Вт: 00:20-23:45; Ср: 00:20-23:45; Чт: 00:20-23:45; Пт: 00:20-23:45; Сб: 00:20-23:45; Вс: 00:20-23:45,+05:00,3.4,34,,,,,,,,https://instagram.com/cu_kazakhstan,,,,,,,,,,,43.237026,76.929779,https://2gis.com/firm/70000001092767620,branch
CU,магазин ,Супермаркеты; Быстрое питание; Магазины ингредиентов азиатской кухни; Продукты быстрого приготовления; Косметика / Парфюмерия; Диетические / соевые продукты; Продажа кофе,"улица Розыбакиева, 343 блок 5",,050060,,Бостандыкский район,Алматы,,Алматы,Казахстан,Пн: 00:20-23:45; Вт: 00:20-23:45; Ср: 00:20-23:45; Чт: 00:20-23:45; Пт: 00:20-23:45; Сб: 00:20-23:45; Вс: 00:20-23:45,+05:00,4.6,11,,,,,,,,https://instagram.com/cu_kazakhstan,,,,,,,,,,,43.207415,76.895426,https://2gis.com/firm/70000001092718779,branch
CU,магазин ,Супермаркеты; Быстрое питание; Магазины ингредиентов азиатской кухни; Продукты быстрого приготовления; Косметика / Парфюмерия; Диетические / соевые продукты; Продажа кофе,"улица Навои, 39 блок 12",,050042,Таугуль-1 м-н,Ауэзовский район,Алматы,,Алматы,Казахстан,Пн: 00:20-23:45; Вт: 00:20-23:45; Ср: 00:20-23:45; Чт: 00:20-23:45; Пт: 00:20-23:45; Сб: 00:20-23:45; Вс: 00:20-23:45,+05:00,4.3,27,,,,,,,,https://instagram.com/cu_kazakhstan,,,,,,,,,,,43.215742,76.88064,https://2gis.com/firm/70000001092718742,branch
CU,магазин ,Супермаркеты; Быстрое питание; Магазины ингредиентов азиатской кухни; Продукты быстрого приготовления; Косметика / Парфюмерия; Диетические / соевые продукты; Продажа кофе,"проспект Гагарина, 287 блок Б",,050060,,Бостандыкский район,Алматы,,Алматы,Казахстан,Пн: 00:20-23:45; Вт: 00:20-23:45; Ср: 00:20-23:45; Чт: 00:20-23:45; Пт: 00:20-23:45; Сб: 00:20-23:45; Вс: 00:20-23:45,+05:00,3.9,87,87273398755,,,,,,,https://instagram.com/cu_kazakhstan,,,,,,,,,,,43.204918,76.898672,https://2gis.com/firm/70000001089189015,branch
CU,магазин ,Супермаркеты; Магазины ингредиентов азиатской кухни; Продукты быстрого приготовления; Косметика / Парфюмерия; Продажа кофе; Быстрое питание; Диетические / соевые продукты,"проспект Абая, 10",,050021,,Бостандыкский район,Алматы,,Алматы,Казахстан,Пн: 00:20-23:45; Вт: 00:20-23:45; Ср: 00:20-23:45; Чт: 00:20-23:45; Пт: 00:20-23:45; Сб: 00:20-23:45; Вс: 00:20-23:45,+05:00,3.6,193,87273398729,,,,,,,https://instagram.com/cu_kazakhstan,,,,,,,,,,,43.242183,76.946582,https://2gis.com/firm/70000001086700656,branch
D & P Perfumum,магазин,Косметика / Парфюмерия,"проспект Абая, 141",59 бутик; 1 этаж,050009,,Алмалинский район,Алматы,,Алматы,Казахстан,Пн: 10:00-20:00; Вт: 10:00-20:00; Ср: 10:00-20:00; Чт: 10:00-20:00; Пт: 10:00-20:00; Сб: 10:00-20:00; Вс: 10:00-19:00,+05:00,5.0,1,87772159933 (единый номер: пн-вс 10:00-20:00),87053399909 (единый номер: пн-вс 10:00-20:00),,,,,,https://instagram.com/dpparfumalmaty,,,https://wa.me/77772159933,,,,,,,,43.239423,76.896059,https://2gis.com/firm/70000001041774048,branch
D market,мини-маркет,Супермаркеты,"улица Тлебайулы, 1",,050052,Таугуль-3 м-н,Ауэзовский район,Алматы,,Алматы,Казахстан,Пн: 08:00-23:00; Вт: 08:00-23:00; Ср: 08:00-23:00; Чт: 08:00-23:00; Пт: 08:00-24:00; Сб: 08:00-24:00; Вс: 08:00-23:00,+05:00,3.9,20,87073790660,,,,,,,,,,https://wa.me/77073790660,,,,,,,,43.197946,76.859834,https://2gis.com/firm/70000001065358489,branch
D-stroy,магазин,Напольные покрытия,"улица Розыбакиева, 72а к3",3 бутик; 1 этаж,050009,,Алмалинский район,Алматы,,Алматы,Казахстан,Пн: 09:00-18:00; Вт: 09:00-18:00; Ср: 09:00-18:00; Чт: 09:00-18:00; Пт: 09:00-18:00; Сб: 09:00-18:00; Вс: 09:00-18:00,+05:00,,,87756762555,,,,http://www.d-stroy.kz,,,,,,https://wa.me/77756762555,,,,,,,,43.242989,76.889507,https://2gis.com/firm/70000001062446818,branch
Daily Mart,супермаркет,Супермаркеты,"улица Навои, 208/4",,050043,,Бостандыкский район,Алматы,,Алматы,Казахстан,Пн: 08:00-23:00; Вт: 08:00-23:00; Ср: 08:00-23:00; Чт: 08:00-23:00; Пт: 08:00-23:00; Сб: 08:00-23:00; Вс: 08:00-23:00,+05:00,1.9,7,,,,,,,,https://instagram.com/daily.food.almaty,,,,,,,,,,,43.206032,76.885927,https://2gis.com/firm/70000001090615013,branch
Daily Mart,супермаркет,Супермаркеты,"бульвар Бухар жырау, 27/5 блок 4",1 этаж,050021,Бухар Жырау м-н,Бостандыкский район,Алматы,,Алматы,Казахстан,Пн: 00:00-24:00; Вт: 00:00-24:00; Ср: 00:00-24:00; Чт: 00:00-24:00; Пт: 00:00-24:00; Сб: 00:00-24:00; Вс: 00:00-24:00,+05:00,2.4,54,,,,,,,,,,,,,,,,,,,43.235107,76.922957,https://2gis.com/firm/70000001046228512,branch
Daily Mart,супермаркет,Супермаркеты,"улица Аскарова, 21",1 этаж,050070,Рахат (Наурызбайский район) м-н,Наурызбайский район,Алматы,,Алматы,Казахстан,Пн: 00:00-24:00; Вт: 00:00-24:00; Ср: 00:00-24:00; Чт: 00:00-24:00; Пт: 00:00-24:00; Сб: 00:00-24:00; Вс: 00:00-24:00,+05:00,2.6,84,,,,,,,,,,,,,,,,,,,43.180382,76.869911,https://2gis.com/firm/70000001043442296,branch
damdala,магазин готовой еды,Продуктовые магазины,"микрорайон Орбита 1, 2",1 этаж,050043,Орбита-1 м-н,Бостандыкский район,Алматы,,Алматы,Казахстан,Пн: 08:00-21:00; Вт: 08:00-21:00; Ср: 08:00-21:00; Чт: 08:00-21:00; Пт: 08:00-21:00; Сб: 08:00-21:00; Вс: 08:00-21:00,+05:00,4.2,45,87773048681,,,,,,,https://instagram.com/damdala.kz,,,https://wa.me/77089688413,,,,https://t.me/+77773048681,,,,43.20199,76.885684,https://2gis.com/firm/70000001081062694,branch
Dana,продуктовый магазин,Продуктовые магазины,"проспект Абая, 8г/7а",1 этаж,050010,,Медеуский район,Алматы,,Алматы,Казахстан,Пн: 08:00-23:30; Вт: 08:00-23:30; Ср: 08:00-23:30; Чт: 08:00-23:30; Пт: 08:00-23:30; Сб: 08:00-23:30; Вс: 08:00-23:30,+05:00,2.6,6,87021999679,,,,,,,,,,https://wa.me/77021999679,,,,,,,,43.239565,76.952594,https://2gis.com/firm/70000001082371404,branch
Danek,магазин,Нижнее бельё; Носки / Колготки; Детская одежда,"улица Тимирязева, 81",цокольный этаж,050057,,Бостандыкский район,Алматы,,Алматы,Казахстан,Пн: 10:00-19:00; Вт: 10:00-19:00; Ср: 10:00-19:00; Чт: 10:00-19:00; Пт: 10:00-19:00; Сб: 10:00-19:00; Вс: 10:00-19:00,+05:00,5.0,2,87011399434,,,,,,,https://instagram.com/danek.kids,,,https://wa.me/77011399434,,,,,,,,43.226009,76.903788,https://2gis.com/firm/70000001057863196,branch
Daruland,магазин,БАДы; Косметика / Парфюмерия; Бытовая химия,"проспект Назарбаева, 240",,050059,Самал-2 м-н,Медеуский район,Алматы,,Алматы,Казахстан,Пн: 10:00-19:00; Вт: 10:00-19:00; Ср: 10:00-19:00; Чт: 10:00-19:00; Пт: 10:00-19:00; Сб: 10:00-19:00; Вс: 10:00-19:00,+05:00,4.9,67,,,,,,,,https://instagram.com/daruland.kz,,,,,,,https://t.me/daruland,,,,43.230401,76.95027,https://2gis.com/firm/70000001089470712,branch
De Salitto,магазин,Детская одежда; Школьная форма; Товары для новорождённых,"проспект Сейфуллина, 617",4 этаж,050013,,Бостандыкский район,Алматы,,Алматы,Казахстан,Пн: 10:00-22:00; Вт: 10:00-22:00; Ср: 10:00-22:00; Чт: 10:00-22:00; Пт: 10:00-22:00; Сб: 10:00-22:00; Вс: 10:00-22:00,+05:00,2.0,2,87017894111,,,,,,,https://instagram.com/desalitto_kz,,,https://wa.me/77017894111,,,,,,,,43.233674,76.935523,https://2gis.com/firm/70000001053107060,branch
Di Mart 09,продуктовый магазин,Продуктовые магазины,"микрорайон Самал-2, 74",,050059,Самал-2 м-н,Медеуский район,Алматы,,Алматы,Казахстан,Пн: 08:00-24:00; Вт: 08:00-24:00; Ср: 08:00-24:00; Чт: 08:00-24:00; Пт: 08:00-24:00; Сб: 08:00-24:00; Вс: 08:00-24:00,+05:00,,,87014640308,,,,,,,,,,https://wa.me/77014640308,,,,,,,,43.231526,76.951746,https://2gis.com/firm/70000001094490106,branch
Diamond,мини-маркет,Супермаркеты,,,,Ожет м-н,,Алматы,,Алматы,Казахстан,,+05:00,,,,,,,,,,,,,,,,,,,,,,,https://2gis.com/firm/70000001088085631,branch
Diana,продовольственный магазин,Продуктовые магазины,"улица Жарокова, 286",1 этаж,050060,,Бостандыкский район,Алматы,,Алматы,Казахстан,Пн: 08:00-24:00; Вт: 08:00-24:00; Ср: 08:00-24:00; Чт: 08:00-24:00; Пт: 08:00-24:00; Сб: 08:00-24:00; Вс: 08:00-24:00,+05:00,3.0,12,87002766848,87074145298,,,,,,,,,https://wa.me/77002766848,,,,,,,,43.205489,76.904755,https://2gis.com/firm/9429940001704277,branch
Diana Sh,магазин,Женская одежда; Обувные магазины,"улица Мамыр, 1",31 бутик; 2 этаж,050045,Нур Алатау м-н,Бостандыкский район,Алматы,,Алматы,Казахстан,Пн: 11:00-20:00; Вт: 11:00-20:00; Ср: 11:00-20:00; Чт: 11:00-20:00; Пт: 11:00-20:00; Сб: 11:00-20:00; Вс: 11:00-20:00,+05:00,5.0,1,87073185887,,,,,,,https://instagram.com/dianash.store,,,https://wa.me/77073185887,,,,,,,,43.193827,76.903683,https://2gis.com/firm/70000001075588883,branch
Dias,продуктовый магазин,Продуктовые магазины,"улица Мынбаева, 47",1 этаж,050008,,Бостандыкский район,Алматы,,Алматы,Казахстан,Пн: 08:00-24:00; Вт: 08:00-24:00; Ср: 08:00-24:00; Чт: 08:00-24:00; Пт: 08:00-24:00; Сб: 09:00-24:00; Вс: 09:00-24:00,+05:00,3.1,18,87273758526,,,,,,,,,,https://wa.me/77772117927,,,,,,,,43.237777,76.905933,https://2gis.com/firm/9429940000802606,branch
Dino`s,супермаркет,Супермаркеты,"проспект Гагарина, 100/170",,050009,,Алмалинский район,Алматы,,Алматы,Казахстан,Пн: 00:00-24:00; Вт: 00:00-24:00; Ср: 00:00-24:00; Чт: 00:00-24:00; Пт: 00:00-24:00; Сб: 00:00-24:00; Вс: 00:00-24:00,+05:00,2.5,41,87023419747,,,,,,,,,,,,,,,,,,43.240242,76.894898,https://2gis.com/firm/70000001079663148,branch
Dino`s,супермаркет,Супермаркеты,"микрорайон Орбита 2, 6",1 этаж,050043,Орбита-2 м-н,Бостандыкский район,Алматы,,Алматы,Казахстан,Пн: 00:00-24:00; Вт: 00:00-24:00; Ср: 00:00-24:00; Чт: 00:00-24:00; Пт: 00:00-24:00; Сб: 00:00-24:00; Вс: 00:00-24:00,+05:00,2.2,81,,,,,,,,,,,,,,,,,,,43.196694,76.88734,https://2gis.com/firm/70000001046307478,branch
Dino`s,супермаркет,Супермаркеты,"проспект Серкебаева, 138",1 этаж,050060,Алмагуль м-н,Бостандыкский район,Алматы,,Алматы,Казахстан,Пн: 06:00-02:00; Вт: 06:00-02:00; Ср: 06:00-02:00; Чт: 06:00-02:00; Пт: 06:00-02:00; Сб: 06:00-02:00; Вс: 06:00-02:00,+05:00,2.2,104,,,,,,,,,,,,,,,,,,,43.202343,76.899389,https://2gis.com/firm/70000001033441751,branch
Dino`s,супермаркет,Супермаркеты,"микрорайон Казахфильм, 37",1 этаж,050023,Казахфильм м-н,Бостандыкский район,Алматы,,Алматы,Казахстан,Пн: 00:00-24:00; Вт: 00:00-24:00; Ср: 00:00-24:00; Чт: 00:00-24:00; Пт: 00:00-24:00; Сб: 00:00-24:00; Вс: 00:00-24:00,+05:00,2.0,151,,,,,,,,,,,,,,,,,,,43.197989,76.907111,https://2gis.com/firm/70000001028039580,branch
Dino`s,супермаркет,Супермаркеты,"улица Розыбакиева, 220",1 этаж,050060,,Бостандыкский район,Алматы,,Алматы,Казахстан,Пн: 06:00-02:00; Вт: 06:00-02:00; Ср: 06:00-02:00; Чт: 06:00-02:00; Пт: 06:00-02:00; Сб: 06:00-02:00; Вс: 06:00-02:00,+05:00,1.7,110,,,,,,,,,,,,,,,,,,,43.222961,76.891978,https://2gis.com/firm/70000001028039560,branch
Do’ Kenn,мини-маркет,Супермаркеты; Доставка продуктов,"проспект Гагарина, 310 блок 10",2 этаж,050060,,Бостандыкский район,Алматы,,Алматы,Казахстан,Пн: 10:00-21:00; Вт: 10:00-21:00; Ср: 10:00-21:00; Чт: 10:00-21:00; Пт: 10:00-21:00; Сб: 10:00-21:00; Вс: 10:00-21:00,+05:00,4.8,39,87075813513,,,,,,,https://instagram.com/dokenn_almaty,,,https://wa.me/77075813513,,,,,,,,43.199726,76.899695,https://2gis.com/firm/70000001080317573,branch
Dochabai,продуктовый магазин,Продуктовые магазины,"проспект Абая, 54/1",1 этаж,050008,,Бостандыкский район,Алматы,,Алматы,Казахстан,Пн: 09:00-23:00; Вт: 09:00-23:00; Ср: 09:00-23:00; Чт: 09:00-23:00; Пт: 09:00-23:00; Сб: 09:00-23:00; Вс: 09:00-23:00,+05:00,2.0,4,,,,,,,,,,,,,,,,,,,43.238217,76.91134,https://2gis.com/firm/70000001065103504,branch
Dostar,мини-маркет,Супермаркеты,"улица Хусаинова, 225",1 этаж,050060,,Бостандыкский район,Алматы,,Алматы,Казахстан,Пн: 08:00-24:00; Вт: 08:00-24:00; Ср: 08:00-24:00; Чт: 08:00-24:00; Пт: 08:00-24:00; Сб: 08:00-24:00; Вс: 08:00-24:00,+05:00,2.1,13,87476193705,,,,,,,,,,https://wa.me/77476193705,https://wa.me/77081024616,,,,,,,43.205718,76.892089,https://2gis.com/firm/9429940001179183,branch
Dostar,продуктовый магазин,Продуктовые магазины,"улица Байтурсынова, 78",,050022,,Алмалинский район,Алматы,,Алматы,Казахстан,Пн: 07:30-22:30; Вт: 07:30-22:30; Ср: 07:30-22:30; Чт: 07:30-22:30; Пт: 07:30-22:30; Сб: 07:30-22:30; Вс: 07:30-22:30,+05:00,2.6,31,87476193705,,,,,,,,,,https://wa.me/77476193705,,,,,,,,43.243164,76.927356,https://2gis.com/firm/70000001078687808,branch
Dostyk market,супермаркет,Супермаркеты,"улица Каныша Сатпаева, 82/1",вход с ул. Егизбаева,050046,,Бостандыкский район,Алматы,,Алматы,Казахстан,Пн: 08:00-24:00; Вт: 08:00-24:00; Ср: 08:00-24:00; Чт: 08:00-24:00; Пт: 08:00-24:00; Сб: 08:00-24:00; Вс: 08:00-24:00,+05:00,4.1,5,87071712989,,,,,,,,,,https://wa.me/77071712989,,,,,,,,43.233671,76.884278,https://2gis.com/firm/70000001090446165,branch
Dreame ,магазин,Бытовая техника,"улица Розыбакиева, 247а","A17, А19 бутик; 1 этаж",050060,,Бостандыкский район,Алматы,,Алматы,Казахстан,Пн: 10:00-22:00; Вт: 10:00-22:00; Ср: 10:00-22:00; Чт: 10:00-22:00; Пт: 10:00-22:00; Сб: 10:00-22:00; Вс: 10:00-22:00,+05:00,5.0,8,87273000330,,,,,,,https://instagram.com/dreame.kazakhstan,,,,,,,,,,,43.202818,76.891856,https://2gis.com/firm/70000001093827227,branch
Dreame ,магазин,Бытовая техника,"улица Розыбакиева, 263",,050060,,Бостандыкский район,Алматы,,Алматы,Казахстан,Пн: 10:00-22:00; Вт: 10:00-22:00; Ср: 10:00-22:00; Чт: 10:00-22:00; Пт: 10:00-22:00; Сб: 10:00-22:00; Вс: 10:00-22:00,+05:00,4.8,15,87073000330,,,,,,,https://instagram.com/dreame.kazakhstan,,,https://wa.me/77073000330,,,,,,,,43.200841,76.892545,https://2gis.com/firm/70000001089897793,branch
Dreame ,магазин,Бытовая техника,"микрорайон Самал-2, 111",1 этаж; напротив Galmart,050051,Самал-2 м-н,Медеуский район,Алматы,,Алматы,Казахстан,Пн: 10:00-22:00; Вт: 10:00-22:00; Ср: 10:00-22:00; Чт: 10:00-22:00; Пт: 10:00-22:00; Сб: 10:00-22:00; Вс: 10:00-22:00,+05:00,5.0,19,87073000330,,,,,,,https://instagram.com/dreame.kazakhstan,,,https://wa.me/77073000330,,,,,,,,43.233492,76.955735,https://2gis.com/firm/70000001089897609,branch
Dreame ,магазин,Бытовая техника,"проспект Сейфуллина, 617",1 этаж,050013,,Бостандыкский район,Алматы,,Алматы,Казахстан,Пн: 10:00-22:00; Вт: 10:00-22:00; Ср: 10:00-22:00; Чт: 10:00-22:00; Пт: 10:00-22:00; Сб: 10:00-22:00; Вс: 10:00-22:00,+05:00,4.7,16,87073000330,,,,,,,https://instagram.com/dreame.kazakhstan,,,https://wa.me/77073000330,,,,,,,,43.234068,76.936113,https://2gis.com/firm/70000001088764521,branch
Dress Shop,магазин,Женская одежда; Мужская одежда; Детская одежда,"бульвар Бухар жырау, 64",1 этаж,050057,,Бостандыкский район,Алматы,,Алматы,Казахстан,Пн: 10:00-20:00; Вт: 10:00-20:00; Ср: 10:00-20:00; Чт: 10:00-20:00; Пт: 10:00-20:00; Сб: 10:00-20:00; Вс: 10:00-17:00,+05:00,4.5,9,87079898135,,,,,,,https://instagram.com/dress_stock,,,https://wa.me/77079898135,,,,,,,,43.230693,76.906347,https://2gis.com/firm/70000001075454499,branch
Duken,продуктовый магазин,Продуктовые магазины,"бульвар Бухар жырау, 26/1",1 этаж,050021,Коктем-1 м-н,Бостандыкский район,Алматы,,Алматы,Казахстан,Пн: 09:00-21:00; Вт: 09:00-21:00; Ср: 09:00-21:00; Чт: 09:00-21:00; Пт: 09:00-21:00; Сб: 09:00-21:00,+05:00,3.8,6,87002785975,,,,,,,,,,https://wa.me/77002785975,,,,,,,,43.232513,76.923271,https://2gis.com/firm/70000001065443975,branch
dukenplus.kz,магазин,Продуктовые магазины; Доставка продуктов,"проспект Аль-Фараби, 17 к4Б",102 помещение; 1 этаж,050059,,Бостандыкский район,Алматы,,Алматы,Казахстан,Пн: 00:00-24:00; Вт: 00:00-24:00; Ср: 00:00-24:00; Чт: 00:00-24:00; Пт: 00:00-24:00; Сб: 00:00-24:00; Вс: 00:00-24:00,+05:00,3.1,36,,,,,http://taplink.cc/zypzyp,,,https://instagram.com/zypzyp_kz,,,,,,,,,,,43.229883,76.945486,https://2gis.com/firm/70000001035553353,branch
EchoWave.kz,магазин,Часы / Аксессуары; Аксессуары к телефонам; Бытовая техника; Мобильные телефоны,"проспект Абая, 150/230 блок 8",вход с магазина Чудо Товар,050046,,Бостандыкский район,Алматы,,Алматы,Казахстан,Пн: 10:00-19:00; Вт: 10:00-19:00; Ср: 10:00-19:00; Чт: 10:00-19:00; Пт: 10:00-19:00; Сб: 10:00-19:00; Вс: 10:00-19:00,+05:00,5.0,12,87713411007,,,,,,,https://instagram.com/echowave.kz,,,https://wa.me/77713411007,https://wa.me/77761296725,,,,,,,43.237669,76.884773,https://2gis.com/firm/70000001094079088,branch
Elaman,продуктовый магазин,Продуктовые магазины,"проспект Абая, 34",1 этаж,050022,,Бостандыкский район,Алматы,,Алматы,Казахстан,Пн: 08:00-24:00; Вт: 08:00-24:00; Ср: 08:00-24:00; Чт: 08:00-24:00; Пт: 08:00-24:00; Сб: 08:00-24:00; Вс: 08:00-24:00,+05:00,2.4,13,87272920175,,,,,,,,,,,,,,,,,,43.241253,76.93285,https://2gis.com/firm/70000001018501675,branch
Elkan,магазин,Молочные продукты; Бытовая химия,"улица Егизбаева, 7/21",,050071,,Бостандыкский район,Алматы,,Алматы,Казахстан,Пн: 09:00-21:00; Вт: 09:00-21:00; Ср: 09:00-21:00; Чт: 09:00-21:00; Пт: 09:00-21:00; Сб: 09:00-21:00; Вс: 09:00-21:00,+05:00,5.0,1,87477125538,,,,,,,https://instagram.com/elkan.almaty,,,,,,,,,,,43.229559,76.884173,https://2gis.com/firm/70000001092676932,branch
Elki.kz,магазин,Новогодние товары,"улица Манаса, 51",,050008,,Бостандыкский район,Алматы,,Алматы,Казахстан,Пн: 10:00-19:00; Вт: 10:00-19:00; Ср: 10:00-19:00; Чт: 10:00-19:00; Пт: 10:00-19:00; Сб: 10:00-19:00; Вс: 10:00-19:00 (по предварительной записи),+05:00,4.8,30,87470942400,,,info@elki.kz,http://elki.kz,,,https://instagram.com/elki.kz,,,https://wa.me/77775666999,,,,,,https://youtube.com/@elki-kz,,43.236513,76.908721,https://2gis.com/firm/70000001094383216,branch
Ellada,мини-маркет,Супермаркеты,"улица Байзакова, 305",1 этаж,050040,,Бостандыкский район,Алматы,,Алматы,Казахстан,Пн: 08:00-23:00; Вт: 08:00-23:00; Ср: 08:00-23:00; Чт: 08:00-23:00; Пт: 08:00-23:00; Сб: 08:00-23:00; Вс: 08:00-23:00,+05:00,4.8,79,87078211854,,,,,,,,,,https://wa.me/77078211854,,,,,,,,43.229606,76.914961,https://2gis.com/firm/9429940000786867,branch
Emporio Armani,магазин,Мужская одежда,"проспект Аль-Фараби, 77/8",3 этаж,050040,,Бостандыкский район,Алматы,,Алматы,Казахстан,Пн: 10:00-22:00; Вт: 10:00-22:00; Ср: 10:00-22:00; Чт: 10:00-22:00; Пт: 10:00-22:00; Сб: 10:00-22:00; Вс: 10:00-22:00,+05:00,5.0,3,87273551182,,,,,,,,,,,,,,,,,,43.21864,76.928209,https://2gis.com/firm/70000001067068964,branch
Emporio Armani,магазин,Женская одежда; Мужская одежда; Обувные магазины; Сумки / Кожгалантерея,"проспект Аль-Фараби, 77/8",2 этаж,050040,,Бостандыкский район,Алматы,,Алматы,Казахстан,Пн: 10:00-22:00; Вт: 10:00-22:00; Ср: 10:00-22:00; Чт: 10:00-22:00; Пт: 10:00-22:00; Сб: 10:00-22:00; Вс: 10:00-22:00,+05:00,3.8,9,87273551157,,,,,,,,,,,,,,,,,,43.218419,76.927816,https://2gis.com/firm/70000001045863394,branch
Enjoy Life Kz,магазин,Спортивная одежда / обувь; Сумки / Кожгалантерея; Бытовая техника,"улица Ауэзова, 106",2 этаж,050057,,Бостандыкский район,Алматы,,Алматы,Казахстан,"Вт: 10:30-14:00, 14:30-19:30; Ср: 10:30-14:00, 14:30-19:30; Чт: 10:30-14:00, 14:30-19:30; Пт: 10:30-14:00, 14:30-19:30; Сб: 10:30-14:00, 14:30-19:30; Вс: 14:00-18:30",+05:00,4.1,14,,,,,,,,,,,,,,,,,,,43.233795,76.904996,https://2gis.com/firm/70000001083349695,branch
Erasyl,мини-маркет,Супермаркеты,"улица Торайгырова, 21/1",1 этаж,050043,,Бостандыкский район,Алматы,,Алматы,Казахстан,Пн: 08:00-24:00; Вт: 08:00-24:00; Ср: 08:00-24:00; Чт: 08:00-24:00; Пт: 08:00-24:00; Сб: 08:00-24:00; Вс: 08:00-24:00,+05:00,2.1,17,87772153278,,,,,,,,,,https://wa.me/77013481022,,,,,,,,43.202995,76.873461,https://2gis.com/firm/70000001060992774,branch
Erdaulet,мини-маркет,Супермаркеты,"улица Тажибаевой, 157 к8",1 этаж,050060,,Бостандыкский район,Алматы,,Алматы,Казахстан,Пн: 08:00-23:00; Вт: 08:00-23:00; Ср: 08:00-23:00; Чт: 08:00-23:00; Пт: 08:00-23:00; Сб: 08:00-23:00; Вс: 08:00-23:00,+05:00,4.6,22,,,,,,,,,,,,,,,,,,,43.208985,76.891125,https://2gis.com/firm/70000001040324454,branch
Esentai Gourmet,гастроном премиум-класса,Супермаркеты,"проспект Аль-Фараби, 77/8",-1 этаж,050040,,Бостандыкский район,Алматы,,Алматы,Казахстан,Пн: 08:00-24:00; Вт: 08:00-24:00; Ср: 08:00-24:00; Чт: 08:00-24:00; Пт: 08:00-24:00; Сб: 08:00-24:00; Вс: 08:00-24:00,+05:00,2.8,106,87775520007,87005520007,,,,,,https://instagram.com/esentaigourmet,,,https://wa.me/77775520007,https://wa.me/77005520007,,,,,,,43.218322,76.927642,https://2gis.com/firm/9429940000980088,branch
Eskali,продуктовый магазин,Продуктовые магазины,"улица Кенесары хана, 54/45",1 этаж,050070,Каргалы м-н,Наурызбайский район,Алматы,,Алматы,Казахстан,Пн: 09:00-23:00; Вт: 09:00-23:00; Ср: 09:00-23:00; Чт: 09:00-23:00; Пт: 09:00-23:00; Сб: 09:00-23:00; Вс: 09:00-23:00,+05:00,5.0,28,87071084747,,,,,,,,,,https://wa.me/77071084747,,,,,,,,43.169609,76.873189,https://2gis.com/firm/70000001055625129,branch
etc. concept store,магазин,Женская одежда; Бижутерия; Верхняя одежда; Ювелирные изделия,"улица Тимирязева, 42/14",,050057,,Бостандыкский район,Алматы,,Алматы,Казахстан,Пн: 11:00-19:00; Вт: 11:00-19:00; Ср: 11:00-19:00; Чт: 11:00-19:00; Пт: 11:00-19:00; Сб: 11:00-19:00; Вс: 11:00-19:00,+05:00,4.6,87,87075405918,,,,,,,https://instagram.com/etc.almaty,,,https://wa.me/77075405918,,,,,,,,43.21795,76.904,https://2gis.com/firm/70000001051616152,branch
Etèreo,магазин,Обувные магазины,"проспект Аль-Фараби, 140а",,050044,,Бостандыкский район,Алматы,,Алматы,Казахстан,Пн: 10:00-21:00; Вт: 10:00-21:00; Ср: 10:00-21:00; Чт: 10:00-21:00; Пт: 10:00-21:00; Сб: 10:00-21:00; Вс: 10:00-21:00,+05:00,4.4,2,87005000150,,,,,,,https://instagram.com/etereo.kz,,,https://wa.me/77005000150,,,,,,,,43.211198,76.91999,https://2gis.com/firm/70000001058704669,branch
Euro market,магазин,Бытовая химия; Хозтовары,"улица Жарокова, 280в",1 этаж,050060,,Бостандыкский район,Алматы,,Алматы,Казахстан,"Пн: 10:00-13:00, 14:00-18:00; Вт: 10:00-13:00, 14:00-18:00; Ср: 10:00-13:00, 14:00-18:00; Чт: 10:00-13:00, 14:00-18:00; Пт: 10:00-13:00, 14:00-18:00",+05:00,,,87272476107,87272476171,,,http://e-buy.kz,,,https://instagram.com/euromarket_kz,,,,,,,,,,,43.206782,76.904355,https://2gis.com/firm/70000001033844271,branch
Excellence,мини-маркет,Супермаркеты,"улица Масанчи, 98в",1 этаж,050022,,Бостандыкский район,Алматы,,Алматы,Казахстан,Пн: 08:00-23:00; Вт: 08:00-23:00; Ср: 08:00-23:00; Чт: 08:00-23:00; Пт: 08:00-23:00; Сб: 08:00-23:00; Вс: 08:00-23:00,+05:00,3.4,15,87272606720,,,,,,,,,,,,,,,,,,43.239694,76.931883,https://2gis.com/firm/9429940000972111,branch
Exponenta,магазин,Диетические / соевые продукты,"проспект Абая, 95",,050022,,Алмалинский район,Алматы,,Алматы,Казахстан,Пн: 11:00-19:00; Вт: 11:00-19:00; Ср: 11:00-19:00; Чт: 11:00-19:00; Пт: 11:00-19:00; Сб: 11:00-16:00,+05:00,3.7,14,87088995467,,,,,,,https://instagram.com/exponenta.kazakhstan,,,https://wa.me/77088995467,,,,,,,,43.240858,76.921399,https://2gis.com/firm/70000001090489457,branch
F-lavka,магазин,Мебельная фурнитура,"Е. Брусиловского улица, 167 блок 2",14а офис; цокольный этаж,050005,,Алмалинский район,Алматы,,Алматы,Казахстан,Пн: 09:00-18:00; Вт: 09:00-18:00; Ср: 09:00-18:00; Чт: 09:00-18:00; Пт: 09:00-18:00; Сб: 09:00-13:00,+05:00,3.0,6,87010842438,,,,http://f-lavka.kz,,,https://instagram.com/flavka_blum,,,https://wa.me/77010842438,,,,,,,,43.240901,76.877652,https://2gis.com/firm/70000001025404586,branch
Family market,мини-маркет,Продуктовые магазины,"улица Утепова, 31 блок 5",,050060,,Бостандыкский район,Алматы,,Алматы,Казахстан,Пн: 00:00-24:00; Вт: 00:00-24:00; Ср: 00:00-24:00; Чт: 00:00-24:00; Пт: 00:00-24:00; Сб: 00:00-24:00; Вс: 00:00-24:00,+05:00,4.1,20,87051792308,,,,,,,,,,https://wa.me/77051792308,,,,,,,,43.218911,76.887323,https://2gis.com/firm/70000001083957488,branch
Fastway24,мини-маркет,Супермаркеты,"проспект Абая, 80",,050057,,Бостандыкский район,Алматы,,Алматы,Казахстан,Пн: 00:00-24:00; Вт: 00:00-24:00; Ср: 00:00-24:00; Чт: 00:00-24:00; Пт: 00:00-24:00; Сб: 00:00-24:00; Вс: 00:00-24:00,+05:00,3.5,13,87783372082,,,,,,,,,,https://wa.me/77783372082,,,,,,,,43.239116,76.902467,https://2gis.com/firm/70000001093744958,branch
Fazenda,магазин,Бытовая химия; Хозтовары; Садовый инвентарь; Семена / Посадочный материал; Средства защиты растений / Удобрения,"проспект Гагарина, 230а",,050060,,Бостандыкский район,Алматы,,Алматы,Казахстан,Пн: 09:00-18:00; Вт: 09:00-18:00; Ср: 09:00-18:00; Чт: 09:00-18:00; Пт: 09:00-18:00; Сб: 09:00-18:00; Вс: 09:00-18:00,+05:00,3.4,38,87717017861,87273964404,87273964400,,http://fazenda.kz,,,https://instagram.com/fazenda_gag,,,https://wa.me/77717017861,,,,,,,,43.21575,76.897837,https://2gis.com/firm/9429940000834466,branch
Feron,магазин,Светотехника,"улица Розыбакиева, 72а к3",1 бутик; 1 этаж,050009,,Алмалинский район,Алматы,,Алматы,Казахстан,Пн: 09:00-18:00; Вт: 09:00-18:00; Ср: 09:00-18:00; Чт: 09:00-18:00; Пт: 09:00-18:00; Сб: 09:00-18:00; Вс: 09:00-18:00,+05:00,,,87010158185,,,,,,,,,,https://wa.me/77010158185,,,,,,,,43.242989,76.889507,https://2gis.com/firm/70000001080015972,branch
Fish Meat,супермаркет,Супермаркеты,"улица Навои, 208/8",,050043,,Бостандыкский район,Алматы,,Алматы,Казахстан,Пн: 09:00-21:00; Вт: 09:00-21:00; Ср: 09:00-21:00; Чт: 09:00-21:00; Пт: 09:00-21:00; Сб: 09:00-21:00; Вс: 09:00-21:00,+05:00,3.1,20,87024071007,87024445807,,,,,,,,,https://wa.me/77024445807,https://wa.me/77024071007,,,,,,,43.20465,76.887416,https://2gis.com/firm/70000001053079333,branch
Fish world,магазин,Рыба / Морепродукты; Мясо птицы / Полуфабрикаты; Мясо / Полуфабрикаты; Колбасные изделия,"микрорайон Орбита-3, 5/3а",,050043,Орбита-3 м-н,Бостандыкский район,Алматы,,Алматы,Казахстан,Пн: 09:00-18:00; Вт: 09:00-18:00; Ср: 09:00-18:00; Чт: 09:00-18:00; Пт: 09:00-18:00; Сб: 09:00-18:00; Вс: 09:00-18:00 (летний период: пн-вс 9:00-19:00),+05:00,5.0,20,87760515333,,,,,,,https://instagram.com/fishworld_kz,,,https://wa.me/77760515333,,,,,,,,43.198364,76.878354,https://2gis.com/firm/70000001059002825,branch
Fitness Line,магазин,Спортивная одежда / обувь; Одежда / обувь для танцев,"улица Тимирязева, 42",315 бутик; 2 этаж,050057,,Бостандыкский район,Алматы,,Алматы,Казахстан,Пн: 10:00-21:00; Вт: 10:00-21:00; Ср: 10:00-21:00; Чт: 10:00-21:00; Пт: 10:00-21:00; Сб: 10:00-21:00; Вс: 10:00-21:00,+05:00,4.4,5,87768275524,87017558458,87272757298,,http://fitnessline.kz,,,https://instagram.com/fitness_line_kids,,,https://wa.me/77017558458,https://wa.me/77768275524,,,,,,,43.224695,76.910796,https://2gis.com/firm/9429940000787169,branch
Fitoherb,магазин,БАДы,"проспект Абая, 143",105 офис; 1 этаж,050009,,Алмалинский район,Алматы,,Алматы,Казахстан,Пн: 10:00-18:00; Вт: 10:00-18:00; Ср: 10:00-18:00; Чт: 10:00-18:00; Пт: 10:00-18:00,+05:00,,,87083706152,,,,,,,https://instagram.com/fitoherb.a,,,https://wa.me/77083706152,,,,,,,,43.239362,76.893562,https://2gis.com/firm/70000001088829447,branch
Fix price,супермаркет,Супермаркеты,"улица Щепкина, 35Б",2 этаж,050043,,Бостандыкский район,Алматы,,Алматы,Казахстан,Пн: 09:00-21:00; Вт: 09:00-21:00; Ср: 09:00-21:00; Чт: 09:00-21:00; Пт: 09:00-21:00; Сб: 09:00-21:00; Вс: 09:00-21:00,+05:00,2.9,29,,,,,http://fix-price.kz/stores,,,https://instagram.com/fixprice.kazakhstan,https://facebook.com/fixprice.kazakhstan,https://vk.com/fixprice.kazakhstan,,,,,https://t.me/fixprice_kazakhstan,,,,43.204758,76.877804,https://2gis.com/firm/70000001079635340,branch
Fix price,супермаркет,Супермаркеты,"улица Кенесары хана, 119",,050070,Каргалы м-н,Бостандыкский район,Алматы,,Алматы,Казахстан,Пн: 09:00-21:00; Вт: 09:00-21:00; Ср: 09:00-21:00; Чт: 09:00-21:00; Пт: 09:00-21:00; Сб: 09:00-21:00; Вс: 09:00-21:00,+05:00,3.8,24,,,,,http://fix-price.kz/stores,,,https://instagram.com/fixprice.kazakhstan,https://facebook.com/fixprice.kazakhstan,https://vk.com/fixprice.kazakhstan,,,,,https://t.me/fixprice_kazakhstan,,,,43.172831,76.870508,https://2gis.com/firm/70000001069375897,branch
Fix price,супермаркет,Супермаркеты,"проспект Гагарина, 155",1 этаж,050060,,Бостандыкский район,Алматы,,Алматы,Казахстан,Пн: 09:00-21:00; Вт: 09:00-21:00; Ср: 09:00-21:00; Чт: 09:00-21:00; Пт: 09:00-21:00; Сб: 09:00-21:00; Вс: 09:00-21:00,+05:00,3.4,117,,,,,http://fix-price.kz/stores,,,https://instagram.com/fixprice.kazakhstan,https://facebook.com/fixprice.kazakhstan,https://vk.com/fixprice.kazakhstan,,,,,https://t.me/fixprice_kazakhstan,,,,43.221051,76.896752,https://2gis.com/firm/70000001053569346,branch
Fix price,супермаркет,Супермаркеты,"проспект Абая, 141",цокольный этаж,050009,,Алмалинский район,Алматы,,Алматы,Казахстан,Пн: 09:00-21:00; Вт: 09:00-21:00; Ср: 09:00-21:00; Чт: 09:00-21:00; Пт: 09:00-21:00; Сб: 09:00-21:00; Вс: 09:00-21:00,+05:00,3.2,96,,,,,http://fix-price.kz/stores,,,https://instagram.com/fixprice.kazakhstan,https://facebook.com/fixprice.kazakhstan,https://vk.com/fixprice.kazakhstan,,,,,https://t.me/fixprice_kazakhstan,,,,43.239423,76.896059,https://2gis.com/firm/70000001050598493,branch
Fix price,супермаркет,Супермаркеты,"проспект Абая, 68/74",цокольный этаж,050008,,Бостандыкский район,Алматы,,Алматы,Казахстан,Пн: 09:00-21:00; Вт: 09:00-21:00; Ср: 09:00-21:00; Чт: 09:00-21:00; Пт: 09:00-21:00; Сб: 09:00-21:00; Вс: 09:00-21:00,+05:00,3.0,157,,,,,http://fix-price.kz/stores,,,https://instagram.com/fixprice.kazakhstan,https://facebook.com/fixprice.kazakhstan,https://vk.com/fixprice.kazakhstan,,,,,https://t.me/fixprice_kazakhstan,,,,43.239325,76.905557,https://2gis.com/firm/70000001046633783,branch
Fix price,супермаркет,Супермаркеты,"улица Ауэзова, 138Б",2 этаж,050057,,Бостандыкский район,Алматы,,Алматы,Казахстан,Пн: 09:00-21:00; Вт: 09:00-21:00; Ср: 09:00-21:00; Чт: 09:00-21:00; Пт: 09:00-21:00; Сб: 09:00-21:00; Вс: 09:00-21:00,+05:00,3.3,148,,,,,http://fix-price.kz/stores,,,https://instagram.com/fixprice.kazakhstan,https://facebook.com/fixprice.kazakhstan,https://vk.com/fixprice.kazakhstan,,,,,https://t.me/fixprice_kazakhstan,,,,43.226623,76.905976,https://2gis.com/firm/70000001045881265,branch
Fix price,супермаркет,Супермаркеты,"микрорайон Коктем-2, 2",1 этаж,050040,Коктем-2 м-н,Бостандыкский район,Алматы,,Алматы,Казахстан,Пн: 09:00-21:00; Вт: 09:00-21:00; Ср: 09:00-21:00; Чт: 09:00-21:00; Пт: 09:00-21:00; Сб: 09:00-21:00; Вс: 09:00-21:00,+05:00,2.9,169,,,,,http://fix-price.kz/stores,,,https://instagram.com/fixprice.kazakhstan,https://facebook.com/fixprice.kazakhstan,https://vk.com/fixprice.kazakhstan,,,,,https://t.me/fixprice_kazakhstan,,,,43.22735,76.921177,https://2gis.com/firm/70000001045299451,branch
Flow,магазин,Компьютеры / Комплектующие; Автоаксессуары; Мужская одежда; Женская одежда,"микрорайон Таугуль-1, 47г",6 офис; цокольный этаж,050042,Таугуль-1 м-н,Ауэзовский район,Алматы,,Алматы,Казахстан,Пн: 10:00-19:00; Вт: 10:00-19:00; Ср: 10:00-19:00; Чт: 10:00-19:00; Пт: 10:00-19:00; Сб: 10:00-19:00,+05:00,5.0,1,87084055674,87089652331,,,,,,,,,https://wa.me/77084055674,,,,,,,,43.21301,76.881157,https://2gis.com/firm/70000001089877820,branch
Flugger Almaty,магазин,Лаки / Краски; Малярный инструмент,"улица Тимирязева, 82",2 этаж,050060,,Бостандыкский район,Алматы,,Алматы,Казахстан,Пн: 10:00-19:00; Вт: 10:00-19:00; Ср: 10:00-19:00; Чт: 10:00-19:00; Пт: 10:00-19:00; Сб: 10:00-17:00; Вс: 12:00-17:00,+05:00,4.0,4,87017771112,87015405182,,,,,,https://instagram.com/fluggeralmaty,,,https://wa.me/77017771112,https://wa.me/77015405182,,,https://t.me/+77017771112,,,,43.223987,76.888073,https://2gis.com/firm/70000001067073296,branch
Food Store,супермаркет,Супермаркеты,"проспект Гагарина, 127",1 этаж,050046,,Бостандыкский район,Алматы,,Алматы,Казахстан,Пн: 09:00-21:00; Вт: 09:00-21:00; Ср: 09:00-21:00; Чт: 09:00-21:00; Пт: 09:00-21:00; Сб: 09:00-21:00; Вс: 09:00-21:00,+05:00,2.6,44,87013541124,,,,,,,,,,https://wa.me/77013541124,,,,,,,,43.23693,76.894134,https://2gis.com/firm/70000001027927844,branch
Foodly,мини-маркет,Супермаркеты,"микрорайон Мирас, 157 блок 2",1 этаж,050043,Мирас м-н,Бостандыкский район,Алматы,,Алматы,Казахстан,Пн: 09:00-23:00; Вт: 09:00-23:00; Ср: 09:00-23:00; Чт: 09:00-23:00; Пт: 09:00-23:00; Сб: 09:00-23:00; Вс: 09:00-23:00,+05:00,4.8,43,87076336677,,,foodly_kz@gmail.com,,,,https://instagram.com/foodly_kz,,,https://wa.me/77076336677,,,,,,,,43.189237,76.866589,https://2gis.com/firm/70000001062264817,branch
Forever living products ,магазин,Средства гигиены,"улица Каныша Сатпаева, 90/4",407 офис; 4 этаж,050046,,Бостандыкский район,Алматы,,Алматы,Казахстан,Пн: 10:00-19:00; Вт: 10:00-19:00; Ср: 10:00-19:00; Чт: 10:00-19:00; Пт: 10:00-19:00,+05:00,,,87714622298,,,,,,,,,,,,,,,,,,43.233158,76.876003,https://2gis.com/firm/70000001083259222,branch
Fortuna,продуктовый магазин,Продуктовые магазины,"микрорайон Орбита-3, 30",1 этаж,050043,Орбита-3 м-н,Бостандыкский район,Алматы,,Алматы,Казахстан,Пн: 09:00-24:00; Вт: 09:00-24:00; Ср: 09:00-24:00; Чт: 09:00-24:00; Пт: 09:00-24:00; Сб: 09:00-24:00; Вс: 09:00-24:00,+05:00,3.6,21,,,,,,,,,,,,,,,,,,,43.200561,76.87008,https://2gis.com/firm/70000001028606496,branch
Fresh market,мини-маркет,Супермаркеты; Доставка продуктов,"проспект Гагарина, 310 блок 11",,050060,,Бостандыкский район,Алматы,,Алматы,Казахстан,Пн: 08:00-24:00; Вт: 08:00-24:00; Ср: 08:00-24:00; Чт: 08:00-24:00; Пт: 08:00-24:00; Сб: 08:00-24:00; Вс: 08:00-24:00,+05:00,4.5,12,87475868068,,,,,,,,,,,,,,,,,,43.200275,76.899852,https://2gis.com/firm/70000001081180886,branch
Fresh market,мини-маркет,Супермаркеты; Доставка продуктов,"улица Каныша Сатпаева, 133а",,050046,,Бостандыкский район,Алматы,,Алматы,Казахстан,"Пн: 00:00-07:45, 08:00-24:00; Вт: 00:00-07:45, 08:00-24:00; Ср: 00:00-07:45, 08:00-24:00; Чт: 00:00-07:45, 08:00-24:00; Пт: 00:00-07:45, 08:00-24:00; Сб: 00:00-07:45, 08:00-24:00; Вс: 00:00-07:45, 08:00-24:00",+05:00,,,87475868068,,,,,,,,,,,,,,,,,,43.234653,76.874889,https://2gis.com/firm/70000001081180855,branch
Fresh market,мини-маркет,Супермаркеты,"улица Розыбакиева, 237",1 этаж,050060,,Бостандыкский район,Алматы,,Алматы,Казахстан,"Пн: 00:00-07:45, 08:00-24:00; Вт: 00:00-07:45, 08:00-24:00; Ср: 00:00-07:45, 08:00-24:00; Чт: 00:00-07:45, 08:00-24:00; Пт: 00:00-07:45, 08:00-24:00; Сб: 00:00-07:45, 08:00-24:00; Вс: 00:00-07:45, 08:00-24:00",+05:00,1.9,13,87475868068,,,,,,,,,,,,,,,,,,43.205124,76.893518,https://2gis.com/firm/70000001078712184,branch
Fresh market,мини-маркет,Супермаркеты,"улица Розыбакиева, 247 блок 5",1 этаж,050060,,Бостандыкский район,Алматы,,Алматы,Казахстан,Пн: 08:00-24:00; Вт: 08:00-24:00; Ср: 08:00-24:00; Чт: 08:00-24:00; Пт: 08:00-24:00; Сб: 08:00-24:00; Вс: 08:00-24:00,+05:00,2.6,88,87475868068,,,,,,,,,,,,,,,,,,43.203954,76.89287,https://2gis.com/firm/70000001037679204,branch
Fresh market,мини-маркет,Супермаркеты,"улица Шевченко, 154",1 этаж,050008,,Алмалинский район,Алматы,,Алматы,Казахстан,Пн: 08:30-24:00; Вт: 08:30-24:00; Ср: 08:30-24:00; Чт: 08:30-24:00; Пт: 08:30-24:00; Сб: 09:00-24:00; Вс: 09:00-24:00,+05:00,3.9,56,,,,,,,,,,,,,,,,,,,43.244023,76.916883,https://2gis.com/firm/70000001023285116,branch
Fresh market,мини-маркет,Супермаркеты; Доставка продуктов,"улица Абиша Кекилбайулы, 38 блок 8",1 этаж,050060,,Бостандыкский район,Алматы,,Алматы,Казахстан,Пн: 08:00-24:00; Вт: 08:00-24:00; Ср: 08:00-24:00; Чт: 08:00-24:00; Пт: 08:00-24:00; Сб: 08:00-24:00; Вс: 08:00-24:00,+05:00,2.7,98,87475868068,,,,,,,,,,,,,,,,,,43.204539,76.890894,https://2gis.com/firm/70000001021264162,branch
Fresh Market,мини-маркет,Супермаркеты,"улица Каныша Сатпаева, 90/54",,050046,,Бостандыкский район,Алматы,,Алматы,Казахстан,Пн: 00:00-24:00; Вт: 00:00-24:00; Ср: 00:00-24:00; Чт: 00:00-24:00; Пт: 00:00-24:00; Сб: 00:00-24:00; Вс: 00:00-24:00,+05:00,2.0,31,,,,,,,,,,,,,,,,,,,43.230716,76.876339,https://2gis.com/firm/70000001060880622,branch
Fresh Market,продуктовый магазин,Продуктовые магазины,"проспект Гагарина, 310 блок 11",,050060,,Бостандыкский район,Алматы,,Алматы,Казахстан,Пн: 09:00-02:00; Вт: 09:00-02:00; Ср: 09:00-02:00; Чт: 09:00-02:00; Пт: 09:00-02:00; Сб: 09:00-02:00; Вс: 09:00-02:00,+05:00,4.7,21,87715715177,,,,,,,,,,https://wa.me/77715715177,,,,,,,,43.200432,76.899848,https://2gis.com/firm/70000001077403701,branch
Friends Market ,​мини-маркет,Супермаркеты; Разливное пиво,"проспект Гагарина, 159",,050060,,Бостандыкский район,Алматы,,Алматы,Казахстан,Пн: 08:00-02:00; Вт: 08:00-02:00; Ср: 08:00-02:00; Чт: 08:00-02:00; Пт: 08:00-02:00; Сб: 08:00-02:00; Вс: 08:00-02:00,+05:00,3.8,28,87752742219,,,,,,,,,,https://wa.me/77752742219,,,,,,,,43.220328,76.896809,https://2gis.com/firm/70000001083386266,branch
Furla,магазин,Сумки / Кожгалантерея; Обувные магазины; Солнцезащитные очки,"микрорайон Самал-2, 111",1 этаж,050051,Самал-2 м-н,Медеуский район,Алматы,,Алматы,Казахстан,Пн: 10:00-22:00; Вт: 10:00-22:00; Ср: 10:00-22:00; Чт: 10:00-22:00; Пт: 10:00-22:00; Сб: 10:00-22:00; Вс: 10:00-22:00,+05:00,3.9,8,87015409041,,,,,,,https://instagram.com/rym.borsa,,,https://wa.me/77015409041,,,,,,,,43.2338,76.955916,https://2gis.com/firm/70000001077394598,branch
furniture_bags,магазин,Товары для творчества,"микрорайон Орбита-4, 11",1 этаж,050043,Орбита-4 м-н,Бостандыкский район,Алматы,,Алматы,Казахстан,Пн: 09:00-18:00; Вт: 09:00-18:00; Ср: 09:00-18:00; Чт: 09:00-18:00; Пт: 09:00-18:00; Сб: 09:00-18:00,+05:00,4.6,18,87775832383,,,,,,,https://instagram.com/furniture_bags,,,https://wa.me/77775832383,,,,,,,,43.195573,76.881236,https://2gis.com/firm/70000001032736784,branch
Futora,магазин,Профессиональная косметика; Оборудование для салонов красоты,"улица Жандосова, 98",210 офис; 2 этаж,050042,,Ауэзовский район,Алматы,,Алматы,Казахстан,Пн: 08:00-17:00; Вт: 08:00-17:00; Ср: 08:00-17:00; Чт: 08:00-17:00; Пт: 08:00-17:00; Сб: 09:00-14:00,+05:00,4.3,6,87476189200,87754250590,,,http://www.futora.kz,,,https://instagram.com/futora.kz,,,https://wa.me/77754250590,https://wa.me/77476189200,,,,,,,43.219596,76.880092,https://2gis.com/firm/70000001061017787,branch
G-mart,мини-маркет,Супермаркеты; Разливное пиво,"улица Радостовца, 158/1",цокольный этаж,050060,,Бостандыкский район,Алматы,,Алматы,Казахстан,Пн: 07:00-02:00; Вт: 07:00-02:00; Ср: 07:00-02:00; Чт: 07:00-02:00; Пт: 07:00-02:00; Сб: 07:00-02:00; Вс: 07:00-02:00,+05:00,4.7,42,87074296891,,,,,,,,,,https://wa.me/77774922928,,,,,,,,43.223483,76.8951,https://2gis.com/firm/70000001072645271,branch
Gagarin market,мини-маркет,Супермаркеты,"проспект Гагарина, 287/2",,050060,,Бостандыкский район,Алматы,,Алматы,Казахстан,Пн: 08:00-24:00; Вт: 08:00-24:00; Ср: 08:00-24:00; Чт: 08:00-24:00; Пт: 08:00-24:00; Сб: 08:00-24:00; Вс: 09:00-24:00,+05:00,4.4,16,87774565201,87471450644,,,,,,,,,https://wa.me/77774565201,https://wa.me/77471450644,,,,,,,43.204252,76.897368,https://2gis.com/firm/70000001065516844,branch
Galileo Market,мини-маркет,Супермаркеты,"улица Катаева, 218",1 этаж,050060,,Бостандыкский район,Алматы,,Алматы,Казахстан,Пн: 08:30-22:00; Вт: 08:30-22:00; Ср: 08:30-22:00; Чт: 08:30-22:00; Пт: 08:30-22:00; Сб: 08:30-22:00; Вс: 08:30-22:00,+05:00,2.7,37,87752688010,,,,,,,,,,https://wa.me/77752688010,,,,,,,,43.219765,76.893702,https://2gis.com/firm/70000001055680949,branch
galmart,супермаркет,Супермаркеты,"улица Розыбакиева, 247а",1 этаж,050060,,Бостандыкский район,Алматы,,Алматы,Казахстан,Пн: 09:00-23:45; Вт: 09:00-23:45; Ср: 09:00-23:45; Чт: 09:00-23:45; Пт: 09:00-23:45; Сб: 09:00-23:45; Вс: 09:00-23:45,+05:00,2.8,375,87014447557 (единый номер: пн-вс 9:00-21:00 ),,,,http://galmart.kz/,,,https://instagram.com/galmart_kz,,,https://wa.me/77014447557,,,,https://t.me/galmartsupermarket,,,,43.203588,76.892043,https://2gis.com/firm/70000001048108575,branch
galmart,супермаркет,Супермаркеты,"улица Розыбакиева, 263",2 этаж,050060,,Бостандыкский район,Алматы,,Алматы,Казахстан,Пн: 09:00-22:00; Вт: 09:00-22:00; Ср: 09:00-22:00; Чт: 09:00-22:00; Пт: 09:00-22:00; Сб: 09:00-22:00; Вс: 09:00-22:00,+05:00,2.5,107,87014447557 (единый номер: пн-вс 9:00-21:00 ),,,,http://galmart.kz/,,,https://instagram.com/galmart_kz,,,https://wa.me/77014447557,,,,https://t.me/galmartsupermarket,,,,43.200125,76.892259,https://2gis.com/firm/70000001046935501,branch
galmart,супермаркет,Супермаркеты; Доставка продуктов,"проспект Сейфуллина, 617",1 этаж,050013,,Бостандыкский район,Алматы,,Алматы,Казахстан,Пн: 09:00-23:45; Вт: 09:00-23:45; Ср: 09:00-23:45; Чт: 09:00-23:45; Пт: 09:00-23:45; Сб: 09:00-23:45; Вс: 09:00-23:45,+05:00,2.2,258,87014447557 (единый номер: пн-вс 9:00-21:00 ),,,,http://galmart.kz/,,,https://instagram.com/galmart_kz,,,https://wa.me/77014447557,,,,https://t.me/galmartsupermarket,,,,43.233574,76.934574,https://2gis.com/firm/70000001044160800,branch
galmart,супермаркет,Супермаркеты,"микрорайон Самал-2, 111",1 этаж,050051,Самал-2 м-н,Медеуский район,Алматы,,Алматы,Казахстан,Пн: 09:00-23:45; Вт: 09:00-23:45; Ср: 09:00-23:45; Чт: 09:00-23:45; Пт: 09:00-23:45; Сб: 09:00-23:45; Вс: 09:00-23:45,+05:00,2.5,430,87014447557 (единый номер: пн-вс 9:00-21:00 ),,,,http://galmart.kz/,,,https://instagram.com/galmart_kz,,,https://wa.me/77014447557,,,,https://t.me/galmartsupermarket,,,,43.23353,76.955258,https://2gis.com/firm/9429940001618020,branch
Gastrobox,мини-маркет,Супермаркеты,"микрорайон Самал-2, 48",1 этаж,050059,Самал-2 м-н,Медеуский район,Алматы,,Алматы,Казахстан,Пн: 08:00-24:00; Вт: 08:00-24:00; Ср: 08:00-24:00; Чт: 08:00-24:00; Пт: 08:00-24:00; Сб: 08:00-24:00; Вс: 08:00-24:00,+05:00,2.4,19,87470127315,,,,,,,,,,https://wa.me/77470127315,,,,,,,,43.229516,76.95274,https://2gis.com/firm/70000001047562429,branch
Gastronoмия,супермаркет,Супермаркеты,"улица Навои, 37",1 этаж,050042,,Ауэзовский район,Алматы,,Алматы,Казахстан,Пн: 09:00-24:00; Вт: 09:00-24:00; Ср: 09:00-24:00; Чт: 09:00-24:00; Пт: 09:00-24:00; Сб: 09:00-24:00; Вс: 09:00-24:00,+05:00,2.5,70,,,,,,,,,,,,,,,,,,,43.216887,76.880805,https://2gis.com/firm/70000001032165040,branch
Gaudi,магазин,Лаки / Краски; Малярный инструмент,"проспект Гагарина, 244а",1 этаж,050060,,Бостандыкский район,Алматы,,Алматы,Казахстан,Вт: 09:00-19:00; Ср: 09:00-19:00; Чт: 09:00-19:00; Пт: 09:00-19:00; Сб: 09:00-18:00; Вс: 10:00-18:00,+05:00,4.7,7,87057055284,87010711564,,,,,,https://instagram.com/gaudi_kraski_gagarina,,,https://wa.me/77057055284,https://wa.me/77010711564,,,,,,,43.210438,76.898776,https://2gis.com/firm/70000001045702549,branch
Glo,магазин  ,Табачные изделия / Товары для курения,"проспект Сейфуллина, 617",1 этаж,050013,,Бостандыкский район,Алматы,,Алматы,Казахстан,"Пн: 10:00-14:00, 15:00-22:00; Вт: 10:00-14:00, 15:00-22:00; Ср: 10:00-14:00, 15:00-22:00; Чт: 10:00-14:00, 15:00-22:00; Пт: 10:00-14:00, 15:00-22:00; Сб: 10:00-14:00, 15:00-22:00; Вс: 10:00-14:00, 15:00-22:00",+05:00,5.0,1,5757,,,,http://myglo.kz,,,,,,,,,,https://t.me/go_glo_bot,,,,43.233354,76.935477,https://2gis.com/firm/70000001093640935,branch
Glo,магазин  ,Табачные изделия / Товары для курения,"улица Тимирязева, 42",,050057,,Бостандыкский район,Алматы,,Алматы,Казахстан,Пн: 10:00-21:00; Вт: 10:00-21:00; Ср: 10:00-21:00; Чт: 10:00-21:00; Пт: 10:00-21:00; Сб: 10:00-21:00; Вс: 10:00-21:00,+05:00,,,5757,,,,http://myglo.kz,,,,,,,,,,https://t.me/go_glo_bot,,,,43.224804,76.910639,https://2gis.com/firm/70000001092863741,branch
Glo,магазин  ,Табачные изделия / Товары для курения,"улица Каныша Сатпаева, 90",1 этаж,050046,,Бостандыкский район,Алматы,,Алматы,Казахстан,Пн: 10:00-22:00; Вт: 10:00-22:00; Ср: 10:00-22:00; Чт: 10:00-22:00; Пт: 10:00-22:00; Сб: 10:00-22:00; Вс: 10:00-22:00,+05:00,,,5757,,,,http://myglo.kz,,,,,,,,,,https://t.me/go_glo_bot,,,,43.233129,76.879351,https://2gis.com/firm/70000001092050725,branch
Glo,магазин  ,Табачные изделия / Товары для курения,"проспект Сейфуллина, 617",3 этаж,050013,,Бостандыкский район,Алматы,,Алматы,Казахстан,Пн: 10:00-22:00; Вт: 10:00-22:00; Ср: 10:00-22:00; Чт: 10:00-22:00; Пт: 10:00-22:00; Сб: 10:00-22:00; Вс: 10:00-22:00,+05:00,1.5,2,5757,,,,http://myglo.kz,,,,,,,,,,https://t.me/go_glo_bot,,,,43.234119,76.934909,https://2gis.com/firm/70000001091546343,branch
Glo,магазин  ,Табачные изделия / Товары для курения,"проспект Аль-Фараби, 5/2",цокольный этаж,050059,,Бостандыкский район,Алматы,,Алматы,Казахстан,Пн: 10:00-22:00; Вт: 10:00-22:00; Ср: 10:00-22:00; Чт: 10:00-22:00; Пт: 10:00-22:00; Сб: 10:00-22:00; Вс: 10:00-22:00,+05:00,,,5757,,,,http://myglo.kz,,,,,,,,,,https://t.me/go_glo_bot,,,,43.229529,76.946111,https://2gis.com/firm/70000001090423808,branch
Glo,магазин  ,Табачные изделия / Товары для курения,"проспект Аль-Фараби, 77/8",-1 этаж,050040,,Бостандыкский район,Алматы,,Алматы,Казахстан,Пн: 10:00-22:00; Вт: 10:00-22:00; Ср: 10:00-22:00; Чт: 10:00-22:00; Пт: 10:00-22:00; Сб: 10:00-22:00; Вс: 10:00-22:00,+05:00,4.0,21,5757,,,,http://myglo.kz,,,,,,,,,,https://t.me/go_glo_bot,,,,43.21833,76.927956,https://2gis.com/firm/70000001041266028,branch
Glo,магазин  ,Табачные изделия / Товары для курения,"улица Тимирязева, 42 к3",1 этаж,050057,,Бостандыкский район,Алматы,,Алматы,Казахстан,Пн: 10:00-22:00; Вт: 10:00-22:00; Ср: 10:00-22:00; Чт: 10:00-22:00; Пт: 10:00-22:00; Сб: 10:00-22:00; Вс: 10:00-22:00,+05:00,4.0,24,5757,,,,http://myglo.kz,,,,,,,,,,https://t.me/go_glo_bot,,,,43.225055,76.908754,https://2gis.com/firm/70000001035830287,branch
Glo,магазин  ,Табачные изделия / Товары для курения,"проспект Назарбаева, 226",2 этаж,050059,Самал-2 м-н,Медеуский район,Алматы,,Алматы,Казахстан,Пн: 10:00-22:00; Вт: 10:00-22:00; Ср: 10:00-22:00; Чт: 10:00-22:00; Пт: 10:00-22:00; Сб: 10:00-22:00; Вс: 10:00-22:00,+05:00,4.2,37,5757,,,,http://myglo.kz,,,,,,,,,,https://t.me/go_glo_bot,,,,43.233495,76.950576,https://2gis.com/firm/70000001034385978,branch
Glo,магазин  ,Табачные изделия / Товары для курения,"улица Каныша Сатпаева, 90",1 этаж,050046,,Бостандыкский район,Алматы,,Алматы,Казахстан,Пн: 10:00-22:00; Вт: 10:00-22:00; Ср: 10:00-22:00; Чт: 10:00-22:00; Пт: 10:00-22:00; Сб: 10:00-22:00; Вс: 10:00-22:00,+05:00,4.1,52,5757,,,,http://myglo.kz,,,,,,,,,,https://t.me/go_glo_bot,,,,43.232976,76.878627,https://2gis.com/firm/70000001034385854,branch
Glo,магазин  ,Табачные изделия / Товары для курения,"улица Розыбакиева, 263",,050060,,Бостандыкский район,Алматы,,Алматы,Казахстан,Пн: 10:00-22:00; Вт: 10:00-22:00; Ср: 10:00-22:00; Чт: 10:00-22:00; Пт: 10:00-22:00; Сб: 10:00-22:00; Вс: 10:00-22:00,+05:00,,,5757,,,,http://myglo.kz,,,,,,,,,,https://t.me/go_glo_bot,,,,43.200922,76.891953,https://2gis.com/firm/70000001034385746,branch
